stop_area_id,lat,lon,name,osm:STIF:zone,osm:addr:city,osm:addr:postcode,osm:addr:street,osm:alt_name,osm:alt_ref:FR:uic8,osm:alt_uic_ref,osm:amenity,osm:bus,osm:description,osm:line:SNCF,osm:metro,osm:name,osm:name:CIF,osm:name:RATP,osm:name:RER,osm:name:TZen1,osm:name:Tice,osm:name:de,osm:name:es,osm:name:fr,osm:name:it,osm:name:pt,osm:name:ru,osm:network,osm:official_name,osm:old_name,osm:old_name:1889-~1900,osm:old_name:2006-12-15-~2010,osm:old_name:~1900-2006-12-15,osm:old_name:~2010-2012,osm:opening_hours,osm:operator,osm:platforms,osm:public_transport,osm:public_transport:version,osm:rail,osm:railway,osm:ref,osm:ref:FR:RATP,osm:ref:FR:STIF,osm:ref:FR:uic8,osm:ref:structurae,osm:short_name,osm:site,osm:source,osm:source:name,osm:station,osm:subway,osm:train,osm:tram,osm:tramway,osm:type,osm:type:RATP,osm:uic_name,osm:uic_ref,osm:wheelchair,osm:wikidata,osm:wikipedia
StopArea:Relation:62906,48.8421016,2.321074,Montparnasse-Bienvenüe (13),,,,,,,,,,,,,Montparnasse-Bienvenüe (13),,,,,,,,,,,,,,,,,,,,RATP,,stop_area,,,,,,,,,,,,,,,,,,public_transport,,,,,,
StopArea:Relation:65080,48.8525808,2.3887913999999997,Rue des Boulets,,,,,,,,,,,,,Rue des Boulets,,,,,,,,,,,,,,,,,,,,,,stop_area,,,,,,,,,,,,,,,,,,public_transport,,,,,,
StopArea:Relation:65530,48.9064062,2.4492434,Bobigny — Pablo Picasso,,,,,,,,,,,,,Bobigny — Pablo Picasso,,,,,,,,,,,,,,,,,,,,,,stop_area,,,,,,,,,,,,,,,,,,public_transport,,,,,,
StopArea:Relation:214475,48.8621487,2.3467922,Châtelet Les Halles,,,,,,,,,,,,,Châtelet Les Halles,,,,,,,,,,,,,,,,,,,,,,stop_area,,,,,,,,,,,,,,,yes,,,public_transport,,,,,,
StopArea:Relation:224190,48.871317999999995,2.2777713,Porte Dauphine,,,,,,,,,,,,,Porte Dauphine,,,,,,,,,,,,,,,,,,,,,,stop_area,,,,,,,,,,,,,,,,,,public_transport,,,,,,
StopArea:Relation:224211,48.8828803,2.3442564999999997,Anvers,,,,,,,,,,,,,Anvers,,,,,,,,,,,,,,,,,,,,,,stop_area,,,,,,,,,,,,,,yes,,,,public_transport,,,,,,
StopArea:Relation:224217,48.8847004,2.2989827,Pereire,,,,,,,,,,,,,Pereire,,,,,,,,,,,,,,,,,,,,,,stop_area,,,,,,,,,,,,,,,,,,public_transport,,,,,,
StopArea:Relation:224224,48.853898199999996,2.2893958999999997,Bir-Hakeim,,,,,,,,,,,,,Bir-Hakeim,,,,,,,,,,,,,,,,,,,,,,stop_area,,,,,,,,,,,,,,,,,,public_transport,,,,,,
StopArea:Relation:224229,48.8580816,2.2741957999999998,La Muette - Boulainvilliers,,,,,,,,,,,,,La Muette - Boulainvilliers,,,,,,,,,,,,,,,,,,,,,,stop_area,,,,,,,,,,,,,,,,,,public_transport,,,,,,
StopArea:Relation:371558,48.8531864,2.3684890999999997,Bastille (5),,,,,,,,,,,,,Bastille (5),,,,,,,,,,,,,,,,,,,,RATP,,stop_area,,,,,,,,,,,,,,,,,,public_transport,,,,,,
StopArea:Relation:379422,48.866205199999996,2.3223767,Concorde (8),,,,,,,,,,,,,Concorde (8),,,,,,Eintracht,Concordia,,Concorde,Concórdia,,,,,,,,,,,,stop_area,,,,,,,,,,,,,,,,,,public_transport,,,,,,
StopArea:Relation:379425,48.8745945,2.321544,Saint-Augustin Saint-Lazare,,,,,,,,,,,,,Saint-Augustin Saint-Lazare,,,,,,,,,,,,,,,,,,,,,,stop_area,,,,,,,,,,,,,,,,,,public_transport,,,,,,
StopArea:Relation:965955,48.8837057,2.3329771,Blanche,,,,,,,,,,,,,Blanche,,,,,,,,,,,,,,,,,,,,,,stop_area,,,subway,,,,,,,,,,,,,,,public_transport,,,,,,
StopArea:Relation:965958,48.8837627,2.3497898999999998,Barbès - Rochechouard (2),,,,,,,,,,,,,Barbès - Rochechouard (2),,,,,,,,,,,,,,,,,,,,RATP,,stop_area,,,subway,,,,,,,,,,,,,,,public_transport,,,,,,
StopArea:Relation:965959,48.8844354,2.3596567999999998,La Chapelle,,,,,,,,,,,,,La Chapelle,,,,,,,,,,,,,,,,,,,,,,stop_area,,,subway,,,,,,,,,,,,,,,public_transport,,,,,,
StopArea:Relation:965960,48.8835931,2.3278672,Place de Clichy (2),,,,,,,,,,,,,Place de Clichy (2),,,,,,,,,,,,,,,,,,,,,,stop_area,,,subway,,,,,,,,,,,,,,,public_transport,,,,,,
StopArea:Relation:965968,48.8843331,2.365048,Stalingrad (2),,,,,,,,,,,,,Stalingrad (2),,,,,,,,,,,,,,,,,,,,,,stop_area,,,subway,,,,,,,,,,,,,,,public_transport,,,,,,
StopArea:Relation:965969,48.8826568,2.370434,Jaurès (7b),,,,,,,,,,,,,Jaurès (7b),,,,,,,,,,,,,,,,,,,,,,stop_area,,,,,,,,,,,,,,,,,,public_transport,,,,,,
StopArea:Relation:965970,48.8775226,2.3706619,Colonel Fabien,,,,,,,,,,,,,Colonel Fabien,,,,,,,,,,,,,,,,,,,,,,stop_area,,,subway,,,,,,,,,,,,,,,public_transport,,,,,,
StopArea:Relation:965971,48.8724862,2.3767343999999997,Belleville (11),,,,,,,,,,,,,Belleville (11),,,,,,,,,,,,,,,,,,,,,,stop_area,,,subway,,,,,,,,,,,,,,,public_transport,,,,,,
StopArea:Relation:965973,48.8690663,2.3803856999999997,Couronnes,,,,,,,,,,,,,Couronnes,,,,,,,,,,,,,,,,,,,,,,stop_area,,,subway,,,,,,,,,,,,,,,public_transport,,,,,,
StopArea:Relation:965974,48.8666564,2.383261,Ménilmontant,,,,,,,,,,,,,Ménilmontant,,,,,,,,,,,,,,,,,,,,,,stop_area,,,subway,,,,,,,,,,,,,,,public_transport,,,,,,
StopArea:Relation:965975,48.862662099999994,2.3874819,Père Lachaise (3),,,,,,,,,,,,,Père Lachaise (3),,,,,,,,,,,,,,,,,,,,,,stop_area,,,subway,,,,,,,,,,,,,,,public_transport,,,,,,
StopArea:Relation:969741,48.8654629,2.3555395999999997,Arts et Métiers (3),,,,,,,,,,,,,Arts et Métiers (3),,,,,,,,,,,,,,,,,,,,,,stop_area,,,subway,,,,,,,,,,,,,,,public_transport,,,,,,
StopArea:Relation:969897,48.8654489,2.374578,Parmentier,,,,,,,,,,,,,Parmentier,,,,,,,,,,,,,,,,,,,,,,stop_area,,,subway,,,,,,,,,,,,,,,public_transport,,,,,,
StopArea:Relation:969898,48.8641526,2.3808719,Rue Saint-Maur,,,,,,,,,,,,,Rue Saint-Maur,,,,,,,,,,,,,,,,,,,,,,stop_area,,,subway,,,,,,,,,,,,,,,public_transport,,,,,,
StopArea:Relation:1043361,48.860583299999995,2.3261037,Assemblée Nationale,,,,,,,,,,,,,Assemblée Nationale,,,,,,,,,,,,,,,,,,,,,,stop_area,,,subway,,,,,,,,,,,,,,,public_transport,,,,,,
StopArea:Relation:1047242,48.8640323,2.3498703,Étienne Marcel,,,,,,,,,,,,,Étienne Marcel,,,,,,,,,,,,,,,,,,,,,,stop_area,,,subway,,,,,,,,,,,,,,,public_transport,,,,,,
StopArea:Relation:1079031,48.8728692,2.3299936,Auber,,,,,,,,,,,,,Auber,,,,,,,,,,,,,,,,,,,,,,stop_area,,,subway,,,,,,,,,,,,,,,public_transport,,,,,,
StopArea:Relation:1079032,48.870908,2.3321948999999997,Opéra (8),,,,,,,,,,,,,Opéra (8),,,,,,,,,,,,,,,,,,,,,,stop_area,,,subway,,,,,,,,,,,,,,,public_transport,,,,,,
StopArea:Relation:1079042,48.8736792,2.3273189,Havre - Caumartin (9),,,,,,,,,,,,,Havre - Caumartin (9),,,,,,,,,,,,,,,,,,,,,,stop_area,,,subway,,,,,,,,,,,,,,,public_transport,,,,,,
StopArea:Relation:1203149,48.8406473,2.3519334,Censier Daubenton,,,,,,,,,,,,,Censier Daubenton,,,,,,,,,,,,,,,,,,,,,,stop_area,,,subway,,,,,,,,,,,,,,,public_transport,,,,,,
StopArea:Relation:1266299,48.8689113,2.3408748,Bourse,,,,,,,,,,,,,Bourse,,,,,,,,,,,,,,,,,,,,,,stop_area,,,station,,,,,,,subway_station,,,underground,,,,,public_transport,,,,,,
StopArea:Relation:1299022,48.8699553,2.3710845,Goncourt,,,,,,,,,,,,,Goncourt,,,,,,,,,,,,,,,,,,,,,,stop_area,,,subway,,,,,,,,,,,,,,,public_transport,,,,,,
StopArea:Relation:1306654,48.853484099999996,2.4112334,Porte de Montreuil,,,,,,,,,,,,,Porte de Montreuil,,,,,,,,,,,,,,,,,,,,,,stop_area,,,subway,,,,,,,,,,,,,,,public_transport,,,,,,
StopArea:Relation:1321419,48.8518166,2.4013757,Buzenval,,,,,,,,,,,,,Buzenval,,,,,,,,,,,,,,,,,,,,,,stop_area,,,subway,,,,,,,,,,,,,,,public_transport,,,,,,
StopArea:Relation:1321420,48.852699199999996,2.4061094,Maraîchers,,,,,,,,,,,,,Maraîchers,,,,,,,,,,,,,,,,,,,,,,stop_area,,,,,,,,,,,,,,,,,,public_transport,,,,,,
StopArea:Relation:1578593,48.844631,2.4372157999999997,Château de Vincennes,,,,,,,,,,,,,Château de Vincennes,,,,,,,,,,,,,,,,,,,,,,stop_area,,,,,,,,,,,,,,,,,,public_transport,,,,,,
StopArea:Relation:1610760,48.839394399999996,2.5729818,La Butte Verte,,,,,,,,,,,,,La Butte Verte,,,,,,,,,,,,,,,,,,,,RATP,,stop_area,,,,320a,,,,,,,,,,,,,,public_transport,,,,,,
StopArea:Relation:1610761,48.833222199999994,2.579021,Rue du Ballon,,,,,,,,,,,,,Rue du Ballon,,,,,,,,,,,,,,,,,,,,RATP,,stop_area,,,,320b,,,,,,,,,,,,,,public_transport,,,,,,
StopArea:Relation:1610762,48.8370581,2.5727781999999997,Le Closeau,,,,,,,,,,,,,Le Closeau,,,,,,,,,,,,,,,,,,,,RATP,,stop_area,,,,320b,,,,,,,,,,,,,,public_transport,,,,,,
StopArea:Relation:1610763,48.8372525,2.5762617999999997,La Butte aux Cailles,,,,,,,,,,,,,La Butte aux Cailles,,,,,,,,,,,,,,,,,,,,RATP,,stop_area,,,,320a,,,,,,,,,,,,,,public_transport,,,,,,
StopArea:Relation:1610764,48.8370526,2.5725883,Le Closeau,,,,,,,,,,,,,Le Closeau,,,,,,,,,,,,,,,,,,,,RATP,,stop_area,,,,,,,,,,,,,,,,,,public_transport,,,,,,
StopArea:Relation:1610765,48.8371795,2.5766033999999998,La Butte aux Cailles,,,,,,,,,,,,,La Butte aux Cailles,,,,,,,,,,,,,,,,,,,,RATP,,stop_area,,,,320b,,,,,,,,,,,,,,public_transport,,,,,,
StopArea:Relation:1610766,48.833321999999995,2.578429,Rue du Ballon,,,,,,,,,,,,,Rue du Ballon,,,,,,,,,,,,,,,,,,,,RATP,,stop_area,,,,320a,,,,,,,,,,,,,,public_transport,,,,,,
StopArea:Relation:1622515,48.858425399999994,2.3792804999999997,Voltaire,,,,,,,,,,,,,Voltaire,,,,,,,,,,,,,,,,,,,,,,stop_area,,,subway,,,,,,,,,,,,,,,public_transport,,,,,,
StopArea:Relation:1622516,48.8640529,2.3694165,Oberkampf,,,,,,,,,,,,,Oberkampf,,,,,,,,,,,,,,,,,,,,,,stop_area,,,subway,,,,,,,,,,,,,,,public_transport,,,,,,
StopArea:Relation:1622517,48.8545716,2.3853125,Charonne,,,,,,,,,,,,,Charonne,,,,,,,,,,,,,,,,,,,,,,stop_area,,,subway,,,,,,,,,,,,,,,public_transport,,,,,,
StopArea:Relation:1622518,48.8611881,2.374764,Saint-Ambroise,,,,,,,,,,,,,Saint-Ambroise,,,,,,,,,,,,,,,,,,,,,,stop_area,,,subway,,,,,,,,,,,,,,,public_transport,,,,,,
StopArea:Relation:1622519,48.8573544,2.3681897999999997,Chemin Vert,,,,,,,,,,,,,Chemin Vert,,,,,,,,,,,,,,,,,,,,,,stop_area,,,subway,,,,,,,,,,,,,,,public_transport,,,,,,
StopArea:Relation:1622520,48.860282,2.3721739,Richard Lenoir,,,,,,,,,,,,,Richard Lenoir,,,,,,,,,,,,,,,,,,,,,,stop_area,,,subway,,,,,,,,,,,,,,,public_transport,,,,,,
StopArea:Relation:1622521,48.856626399999996,2.3705145,Bréguet-Sabin,,,,,,,,,,,,,Bréguet-Sabin,,,,,,,,,,,,,,,,,,,,,,stop_area,,,subway,,,,,,,,,,,,,,,public_transport,,,,,,
StopArea:Relation:1687239,48.3112986,2.000401,Place du Général Leclerc,,,,,,,,community_centre,,,,,Place du Général Leclerc,,,,,,,,,,,,Transilien;Transdev CEAT,,,,,,,,Transilien;Transdev CEAT,,stop_area,,,,,,,,,,,,,,,,,,public_transport,,,,,,
StopArea:Relation:1687435,48.4323822,2.1753213,Chasseurs,,,,,,,,,,,,,Chasseurs,,,,,,,,,,,,,,,,,,,,Ormont,,stop_area,,,,,,,,,,,,,,,,,,public_transport,,,,,,
StopArea:Relation:1687436,48.4621973,2.32135,D'Huison-Longueville Centre,,,,,,,,,,,,,D'Huison-Longueville Centre,,,,,,,,,,,,Transdev CEAT,,,,,,,,Transdev CEAT,,stop_area,,,,,,,,,,,,,,,,,,public_transport,,,,,,
StopArea:Relation:1687437,48.3157575,1.9973307999999999,Dommerville Crédit Agricole,,,,,,,,,,,,,Dommerville Crédit Agricole,,,,,,,,,,,,Transilien;Transdev CEAT,,,,,,,,Transilien;Transdev CEAT,,stop_area,,,,,,,,,,,,,,,,,,public_transport,,,,,,
StopArea:Relation:1687438,48.481856099999995,2.3480873,Hôtel de Ville,,,,,,,,,,,,,Hôtel de Ville,,,,,,,,,,,,Transdev CEAT,,,,,,,,Transdev CEAT,,stop_area,,,,,,,,,,,,,,,,,,public_transport,,,,,,
StopArea:Relation:1687439,48.479632699999996,2.3341048,La Ferme,,,,,,,,,,,,,La Ferme,,,,,,,,,,,,Transdev CEAT,,,,,,,,Transdev CEAT,,stop_area,,,,,,,,,,,,,,,,,,public_transport,,,,,,
StopArea:Relation:1687441,48.405090699999995,2.1408578,Le Mesnil,,,,,,,,,,,,,Le Mesnil,,,,,,,,,,,,Transdev CEAT,,,,,,,,Transdev CEAT,,stop_area,,,,,,,,,,,,,,,,,,public_transport,,,,,,
StopArea:Relation:1687442,48.4694928,2.2821827,Mairie de Boissy-le-Cutté,,,,,,,,,,,,,Mairie de Boissy-le-Cutté,,,,,,,,,,,,Transdev CEAT,,,,,,,,Transdev CEAT,,stop_area,,,,,,,,,,,,,,,,,,public_transport,,,,,,
StopArea:Relation:1687443,48.477728,2.331537,Maison de Retraite,,,,,,,,,,,,,Maison de Retraite,,,,,,,,,,,,Transdev CEAT,,,,,,,,Transdev CEAT,,stop_area,,,,,,,,,,,,,,,,,,public_transport,,,,,,
StopArea:Relation:1687444,48.346487599999996,2.0444061,Monnerville Centre,,,,,,,,,,,,,Monnerville Centre,,,,,,,,,,,,Transdev CEAT,,,,,,,,Transdev CEAT,,stop_area,,,,,,,,,,,,,,,,,,public_transport,,,,,,
StopArea:Relation:1687445,48.3479593,2.0312945,Monnerville Gare SNCF,,,,,,,,,,,,,Monnerville Gare SNCF,,,,,,,,,,,,Transdev CEAT,,,,,,,,Transdev CEAT,,stop_area,,,,,,,,,,,,,,,,,,public_transport,,,,,,
StopArea:Relation:1687447,48.485810099999995,2.3447291999999997,Pont de Villiers,,,,,,,,,,,,,Pont de Villiers,,,,,,,,,,,,Transdev CEAT,,,,,,,,Transdev CEAT,,stop_area,,,,,,,,,,,,,,,,,,public_transport,,,,,,
StopArea:Relation:1687448,48.3493809,1.9915129999999999,Pussay Place Carouge,,,,,,,,,,,,,Pussay Place Carouge,,,,,,,,,,,,Transdev CEAT,,,,,,,,Transdev CEAT,,stop_area,,,,,,,,,,,,,,,,,,public_transport,,,,,,
StopArea:Relation:1687449,48.3481922,1.9967572999999998,Pussay Route de Monnerville,,,,,,,,,,,,,Pussay Route de Monnerville,,,,,,,,,,,,Transdev CEAT,,,,,,,,Transdev CEAT,,stop_area,,,,,,,,,,,,,,,,,,public_transport,,,,,,
StopArea:Relation:1687450,48.430045199999995,2.1729100999999997,Sablon,,,,,,,,,,,,,Sablon,,,,,,,,,,,,,,,,,,,,,,stop_area,,,,,,,,,,,,,,,,,,public_transport,,,,,,
StopArea:Relation:1687451,48.3600931,2.1255603,Saclas Poste,,,,,,,,,,,,,Saclas Poste,,,,,,,,,,,,Transdev CEAT,,,,,,,,Transdev CEAT,,stop_area,,,,,,,,,,,,,,,,,,public_transport,,,,,,
StopArea:Relation:1687452,48.4331999,2.1803174,,,,,,,,,,,,,,,,,,,,,,,,,,,,,,,,,,,,stop_area,,,,,,,,,,,,,,,,,,public_transport,,,,,,
StopArea:Relation:1687453,48.433225,2.1669966,Juineteau,,,,,,,,,,,,,Juineteau,,,,,,,,,,,,,,,,,,,,Ormont,,stop_area,,,,,,,,,,,,,,,,,,public_transport,,,,,,
StopArea:Relation:1687454,48.4330417,2.1789026,Hameau de Bretagne,,,,,,,,,,,,,Hameau de Bretagne,,,,,,,,,,,,,,,,,,,,Ormont,,stop_area,,,,,,,,,,,,,,,,,,public_transport,,,,,,
StopArea:Relation:1687455,48.4750144,2.3280928,Église Place de Selves,,,,,,,,,,,,,Église Place de Selves,,,,,,,,,,,,Transdev CEAT,,,,,,,,Transdev CEAT,,stop_area,,,,,,,,,,,,,,,,,,public_transport,,,,,,
StopArea:Relation:1687456,48.4303592,2.1484050999999997,Étampes Haut Pavé,,,,,,,,,,,,,Étampes Haut Pavé,,,,,,,,,,,,Transdev CEAT,,,,,,,,Transdev CEAT,,stop_area,,,,,,,,,,,,,,,,,,public_transport,,,,,,
StopArea:Relation:1687457,48.431418,2.1710938,Étampes Sybilles,,,,,,,,,,,,,Étampes Sybilles,,,,,,,,,,,,,,,,,,,,,,stop_area,,,,,,,,,,,,,,,,,,public_transport,,,,,,
StopArea:Relation:1687458,48.433394,2.1556264,Théâtre,,,,,,,,,,,,,Théâtre,,,,,,,,,,,,,,,,,,,,Ulys,,stop_area,,,,,,,,,,,,,,,,,,public_transport,,,,,,
StopArea:Relation:1733977,48.636342199999994,2.4077609,Orangis - Bois de l'Épine,,,,,,,,,,,,,Orangis - Bois de l'Épine,,,,,T,,,,,,,,,,,,,,,,,stop_area,,,,,,,,,,,,,,,,,,public_transport,,,,,,
StopArea:Relation:1749961,48.829137499999995,2.229743,Pont de Sèvres,,,,,,,,,yes,,,yes,Pont de Sèvres,,,,,,,,,,,,RATP,,,,,,,,RATP,,stop_area,,,,,,,,,,,,,,,,,,public_transport,,,,,,
StopArea:Relation:1782049,48.8797968,2.4165235,Mairie Des Lilas,,,,,,,,,,,,,Mairie Des Lilas,,,,,,,,,,,,RATP,,,,,,,,RATP,,stop_area,,,,,,,,,,,,,,,,,,public_transport,,,,,,
StopArea:Relation:1811047,48.891483699999995,2.3497296,Marcadet-Poissonniers (4),,,,,,,,,,,,,Marcadet-Poissonniers (4),,,,,,,,,,,,,,,,,,,,,,stop_area,,,,,,,,,,,,,,,,,,public_transport,,,,,,
StopArea:Relation:1837356,48.872061699999996,2.3004148,George V,,,,,,,,,,,,,George V,,,,,,,,,,,,,,,,,,,,,,stop_area,,,subway,,,,,,,,,,,,,,,public_transport,,,,,,
StopArea:Relation:1837357,48.8690339,2.3099266,Franklin D. Roosevelt (1),,,,,,,,,,,,,Franklin D. Roosevelt (1),,,,,,,,,,,,,,,,,,,,,,stop_area,,,subway,,,,,,,,,,,,,,,public_transport,,,,,,
StopArea:Relation:1837508,48.897140799999995,2.2803972999999997,Pont de Levallois,,,,,,,,,,,,,Pont de Levallois,,,,,,,,,,,,,,,,,,,,,,stop_area,,,subway,,,,,,,,,,,,,,,public_transport,,,,,,
StopArea:Relation:1837752,48.891483699999995,2.3497296,Marcadet-Poissonniers (9),,,,,,,,,,,,,Marcadet-Poissonniers (9),,,,,,,,,,,,,,,,,,,,,,stop_area,,,subway,,,,,,,,,,,,,,,public_transport,,,,,,
StopArea:Relation:1837753,48.890506099999996,2.3599967,Marx Dormoy,,,,,,,,,,,,,Marx Dormoy,,,,,,,,,,,,,,,,,,,,,,stop_area,,,subway,,,,,,,,,,,,,,,public_transport,,,,,,
StopArea:Relation:1865822,48.872967499999994,2.3332566999999997,Chaussée d'Antin - La Fayette (9),,,,,,,,,,,,,Chaussée d'Antin - La Fayette (9),,,,,,,,,,,,,,,,,,,,,,stop_area,,,subway,,,,,,,,,,,,,,,public_transport,,,,,,
StopArea:Relation:1865828,48.8714412,2.3434953,Grands Boulevards,,,,,,,,,,,,,Grands Boulevards,,,,,,,,,,,,,,,,,,,,,,stop_area,,,subway,,,,,,,,,,,,,,,public_transport,,,,,,
StopArea:Relation:1865829,48.871884599999994,2.3396056,Richelieu Drouot,,,,,,,,,,,,,Richelieu Drouot,,,,,,,,,,,,,,,,,,,,,,stop_area,,,subway,,,,,,,,,,,,,,,public_transport,,,,,,
StopArea:Relation:1865842,48.8706233,2.3487497999999998,Bonne Nouvelle,,,,,,,,,,,,,Bonne Nouvelle,,,,,,,,,,,,,,,,,,,,,,stop_area,,,subway,,,,,,,,,,,,,,,public_transport,,,,,,
StopArea:Relation:1865845,48.8693002,2.3542855,Strasbourg - Saint-Denis (4),,,,,,,,,,,,,Strasbourg - Saint-Denis (4),,,,,,,,,,,,,,,,,,,,,,stop_area,,,subway,,,,,,,,,,,,,,,public_transport,,,,,,
StopArea:Relation:1865860,48.866493299999995,2.3607272,Temple,,,,,,,,,,,,,Temple,,,,,,,,,,,,,,,,,,,,,,stop_area,,,subway,,,,,,,,,,,,,,,public_transport,,,,,,
StopArea:Relation:1865868,48.866238499999994,2.3525513,Réaumur - Sébastopol (3),,,,,,,,,,,,,Réaumur - Sébastopol (3),,,,,,,,,,,,,,,,,,,,,,stop_area,,,subway,,,,,,,,,,,,,,,public_transport,,,,,,
StopArea:Relation:1865873,48.8677211,2.3455641,Sentier,,,,,,,,,,,,,Sentier,,,,,,,,,,,,,,,,,,,,,,stop_area,,,subway,,,,,,,,,,,,,,,public_transport,,,,,,
StopArea:Relation:1871791,48.8646725,2.2937783,Iéna,,,,,,,,,,,,,Iéna,,,,,,,,,,,,,,,,,,,,,,stop_area,,,subway,,,,,,,,,,,,,,,public_transport,,,,,,
StopArea:Relation:1905380,48.826406399999996,2.406201,Liberté,,,,,,,,,,,,,Liberté,,,,,,,,,,,,,,,,,,,,,,stop_area,,,subway,,,,,,,,,,,,,,,public_transport,,,,,,
StopArea:Relation:1993450,48.8406264,2.5918474,Bibliothèque,,,,,,,,,,,,,Bibliothèque,,,,,,,,,,,,,,,,,,,,RATP,,stop_area,,,,312,,,,,,,,,,,,,,public_transport,,,,,,
StopArea:Relation:1993453,48.8380547,2.5930416,Bois de l'Étang - Université,,,,,,,,,,,,,Bois de l'Étang - Université,,,,,,,,,,,,,,,,,,,,RATP,,stop_area,,,,312,,,,,,,,,,,,,,public_transport,,,,,,
StopArea:Relation:1993454,48.841969299999995,2.5840199999999998,CROUS,,,,,,,,,,,,,CROUS,,,,,,,,,,,,,,,,,,,,RATP,,stop_area,,,,312,,,,,,,,,,,,,,public_transport,,,,,,
StopArea:Relation:1993455,48.841593599999996,2.5840874,CROUS,,,,,,,,,,,,,CROUS,,,,,,,,,,,,,,,,,,,,RATP,,stop_area,,,,312,,,,,,,,,,,,,,public_transport,,,,,,
StopArea:Relation:1993456,48.8261234,2.5845559,Collège des Yvris,,,,,,,,,,,,,Collège des Yvris,,,,,,,,,,,,,,,,,,,,RATP,,stop_area,,,,312,,,,,,,,,,,,,,public_transport,,,,,,
StopArea:Relation:1993457,48.8257932,2.5846826,Collège des Yvris,,,,,,,,,,,,,Collège des Yvris,,,,,,,,,,,,,,,,,,,,RATP,,stop_area,,,,312,,,,,,,,,,,,,,public_transport,,,,,,
StopArea:Relation:1993458,48.8351155,2.5918563999999997,Einstein - Galilée,,,,,,,,,,,,,Einstein - Galilée,,,,,,,,,,,,,,,,,,,,RATP,,stop_area,,,,312,,,,,,,,,,,,,,public_transport,,,,,,
StopArea:Relation:1993460,48.836239899999995,2.5858266999999997,Espace Descartes,,,,,,,,,,,,,Espace Descartes,,,,,,,,,,,,,,,,,,,,RATP,,stop_area,,,,312,,,,,,,,,,,,,,public_transport,,,,,,
StopArea:Relation:1993463,48.8235483,2.5801157999999997,Les Yvris - Noisy-le-Grand RER,,,,,,,,,,,,,Les Yvris - Noisy-le-Grand RER,,,,,,,,,,,,,,,,,,,,RATP,,stop_area,,,,312,,,,,,,,,,,,,,public_transport,,,,,,
StopArea:Relation:1993467,48.8385369,2.5850744,Nobel,,,,,,,,,,,,,Nobel,,,,,,,,,,,,,,,,,,,,RATP,,stop_area,,,,312,,,,,,,,,,,,,,public_transport,,,,,,
StopArea:Relation:1993468,48.831396999999996,2.5815256,Rue des Aérostiers,,,,,,,,,,,,,Rue des Aérostiers,,,,,,,,,,,,,,,,,,,,RATP,,stop_area,,,,320,,,,,,,,,,,,,,public_transport,,,,,,
StopArea:Relation:1993469,48.8314472,2.5815334,Rue des Aérostiers,,,,,,,,,,,,,Rue des Aérostiers,,,,,,,,,,,,,,,,,,,,RATP,,stop_area,,,,320,,,,,,,,,,,,,,public_transport,,,,,,
StopArea:Relation:1993470,48.8288611,2.5745679,Victor Hugo,,,,,,,,,,,,,Victor Hugo,,,,,,,,,,,,,,,,,,,,RATP,,stop_area,,,,312,,,,,,,,,,,,,,public_transport,,,,,,
StopArea:Relation:2005030,48.8379798,2.2714928,Pont du Garigliano,,,,,,,,,,,,,Pont du Garigliano,,,,,,,,,,,,,,,,,,,,,,stop_area,,,,,,,,,,,,,,,,yes,,public_transport,,,,,,
StopArea:Relation:2005042,48.8363854,2.2770826,Balard,,,,,,,,,yes,,,,Balard,,,,,,,,,,,,,,,,,,,,,,stop_area,,,,,,,,,,,,,,,,,yes,public_transport,,,,,,
StopArea:Relation:2154932,48.8740398,2.2965457,Charles de Gaulle — Étoile (RER),,,,,,,,,,,,,Charles de Gaulle — Étoile (RER),,,,,,,,,,,,,,,,,,,,,,stop_area,,,,,,,,,,,,,,,,,,public_transport,,,,,,
StopArea:Relation:2154933,48.8482006,2.3959592,Nation (RER),,,,,,,,,,,,,Nation (RER),,,,,,,,,,,,,,,,,,,,,,stop_area,,,,,,,,,,,,,,,,,,public_transport,,,,,,
StopArea:Relation:2225490,48.852728199999994,2.5144785,Neuilly-Plaisance,,,,,,,,,,,,,Neuilly-Plaisance,,,,,,,,,,,,,,,,,,,,,,stop_area,,,,,,,,,,,,,,,,,,,,,,,,
StopArea:Relation:2227727,48.8988253,2.5740903,Montfermeil — Hôpital Intercommunal,,,,,,,,,,,,,Montfermeil — Hôpital Intercommunal,,,,,,,,,,,,,,,,,,,,,,stop_area,,,,,,,,,,,,,,,,,,,,,,,,
StopArea:Relation:2231012,48.883185999999995,2.5272786,Gagny,,,,,,,,,,,,,Gagny,,,,,,,,,,,,,,,,,,,,,,stop_area,,,,,,,,,,,,,,,,,,public_transport,,,,,,
StopArea:Relation:2256402,48.8263331,2.3570569999999997,Tolbiac,,,,,,,,,,,,,Tolbiac,,,,,,,,,,,,,,,,,,,,,,stop_area,,,,,,,,,,,,,,,,,,public_transport,,,,,,
StopArea:Relation:2261537,48.6345058,2.451993,Évry Val de Seine,,,,,,,,,,,,,Évry Val de Seine,,,,,,,,,,,,,,,,,,,,,,stop_area,,,,,,,,,,,,,,,,,,public_transport,,,,,,
StopArea:Relation:2278842,48.835752899999996,2.4747505,Place du Général Leclerc,,,,,,,,,,,,,Place du Général Leclerc,,,,,,,,,,,,,,,,,,,,,,stop_area,,,,,,,,,,,,,,,,,,public_transport,,,,,,
StopArea:Relation:2278844,48.836334099999995,2.4794769,Rue de Beauté,,,,,,,,,,,,,Rue de Beauté,,,,,,,,,,,,,,,,,,,,,,stop_area,,,,,,,,,,,,,,,,,,public_transport,,,,,,
StopArea:Relation:2280284,48.843257,2.1372288999999998,La Celle-Saint-Cloud,,,,,,,,,,,,,La Celle-Saint-Cloud,,,,,,,,,,,,Transilien,,,,,,,,SNCF,,stop_area,,,,,,,,,,,,,,,,,,public_transport,,,,,,
StopArea:Relation:2280899,48.878426,2.6145069999999997,Chelles 2,,,,,,,,,,,,,Chelles 2,,,,,,,,,,,,,,,,,,,,,,stop_area,,,,,,,,,,,,,,,,,,,,,,,,
StopArea:Relation:2333906,48.8052778,2.4855274,Le Parc de Saint-Maur,,,,,,,,,,,,,Le Parc de Saint-Maur,,,,,,,,,,,,,,,,,,,,RATP,,stop_area,,yes,,,,,,,,,,,,,,,,,rer,,,,,
StopArea:Relation:2343337,48.9157459,2.2070113,Salvador Allende,,,,,,,,,,,,,Salvador Allende,,,,,,,,,,,,,,,,,,,,,,stop_area,,,,,,,,,,,,,,,,,,public_transport,,,,,,
StopArea:Relation:2343372,48.9180346,2.2116393999999997,Marcel Paul,,,,,,,,,,,,,Marcel Paul,,,,,,,,,,,,,,,,,,,,,,stop_area,,,,,,,,,,,,,,,,,,public_transport,,,,,,
StopArea:Relation:2345397,48.9197439,2.2145902,Louis Rameau,,,,,,,,,,,,,Louis Rameau,,,,,,,,,,,,,,,,,,,,,,stop_area,,,,,,,,,,,,,,,,,,public_transport,,,,,,
StopArea:Relation:2374749,48.7727627,2.0104452999999998,Observatoire,,,,,,,,,,,,,Observatoire,,,,,,,,,,,,,,,,,,,,SQYBUS,,stop_area,,,,,,,,,,,,,,,,,,public_transport,,,,,,
StopArea:Relation:2375991,48.7624116,2.038521,Lycée Descartes,,,,,,,,,,,,,Lycée Descartes,,,,,,,,,,,,Réseau de Saint-Quentin-en-Yvelines,,,,,,,,SQYBUS,,stop_area,,,,,,,,,,,,,,,,,,public_transport,,,,,,
StopArea:Relation:2378198,48.785339799999996,2.0588895,Droits de l'Homme,,,,,,,,,,,,,Droits de l'Homme,,,,,,,,,,,,Réseau de Saint-Quentin-en-Yvelines,,,,,,,,SQYBUS,,stop_area,,,,,,,,,,,,,,,,,,public_transport,,,,,,
StopArea:Relation:2378199,48.7839609,2.0609745,La Batterie,,,,,,,,,,,,,La Batterie,,,,,,,,,,,,Réseau de Saint-Quentin-en-Yvelines,,,,,,,,SQYBUS,,stop_area,,,,,,,,,,,,,,,,,,public_transport,,,,,,
StopArea:Relation:2531063,49.0107873,2.5596511,Roissypole,,,,,,,,,,,,,Roissypole,,,,,,,,,,,,,,,,,,,,,,stop_area,,,,,,,,,,,,,,,,,,public_transport,,,,,,
StopArea:Relation:2541001,48.8772089,2.4066015999999997,Porte des Lilas (11),,,,,,,,,,,,,Porte des Lilas (11),,,,,,,,,,,,,,,,,,,,,,stop_area,,,subway,,,,,,,,,,,,,,,public_transport,,,,,,
StopArea:Relation:2541608,48.873856499999995,2.3852637999999997,Pyrénées,,,,,,,,,,,,,Pyrénées,,,,,,,,,,,,,,,,,,,,,,stop_area,,,subway,,,,,,,,,,,,,,,public_transport,,,,,,
StopArea:Relation:2546051,48.8645954,2.3984527,Gambetta (3),,,,,,,,,,,,,Gambetta (3),,,,,,,,,,,,,,,,,,,,,,stop_area,,,,,,,,,,,,,,yes,,,,public_transport,,,,,,
StopArea:Relation:2553823,48.868099699999995,2.4013152,Pelleport,,,,,,,,,,,,,Pelleport,,,,,,,,,,,,,,,,,,,,,,stop_area,,,,,,,,,,,,,,yes,,,,public_transport,,,,,,
StopArea:Relation:2553824,48.8716401,2.4040904,Saint-Fargeau,,,,,,,,,,,,,Saint-Fargeau,,,,,,,,,,,,,,,,,,,,,,stop_area,,,,,,,,,,,,,,yes,,,,public_transport,,,,,,
StopArea:Relation:2554095,48.8809263,2.3739076999999997,Bolivar,,,,,,,,,,,,,Bolivar,,,,,,,,,,,,,,,,,,,,,,stop_area,,,,,,,,,,,,,,yes,,,,public_transport,,,,,,
StopArea:Relation:2554096,48.879492199999994,2.3885837999999997,Botzaris,,,,,,,,,,,,,Botzaris,,,,,,,,,,,,,,,,,,,,,,stop_area,,,,,,,,,,,,,,yes,,,,public_transport,,,,,,
StopArea:Relation:2554097,48.8783952,2.3811887,Buttes Chaumont,,,,,,,,,,,,,Buttes Chaumont,,,,,,,,,,,,,,,,,,,,,,stop_area,,,,,,,,,,,,,,yes,,,,public_transport,,,,,,
StopArea:Relation:2554098,48.881944399999995,2.3933608,Danube,,,,,,,,,,,,,Danube,,,,,,,,,,,,,,,,,,,,,,stop_area,,,,,,,,,,,,,,yes,,,,public_transport,,,,,,
StopArea:Relation:2554100,48.8813781,2.3652954,Louis Blanc (7),,,,,,,,,,,,,Louis Blanc (7),,,,,,,,,,,,,,,,,,,,,,stop_area,,,,,,,,,,,,,,yes,,,,public_transport,,,,,,
StopArea:Relation:2554101,48.8766898,2.3927601999999997,Place des Fêtes,,,,,,,,,,,,,Place des Fêtes,,,,,,,,,,,,,,,,,,,,,,stop_area,,,,,,,,,,,,,,yes,,,,public_transport,,,,,,
StopArea:Relation:2554102,48.8799345,2.3990632,Pré Saint-Gervais,,,,,,,,,,,,,Pré Saint-Gervais,,,,,,,,,,,,,,,,,,,,,,stop_area,,,,,,,,,,,,,,yes,,,,public_transport,,,,,,
StopArea:Relation:2559313,48.8141751,2.257682,Hôpital Percy,,,,,,,,,,,,,Hôpital Percy,,,,,,,,,,,,,,,,,,,,,,stop_area,,,,,,,,,,,survey,,,,,,,public_transport,,,,,,
StopArea:Relation:2559315,48.8254172,2.272767,Mairie d'Issy,,,,,,,,,,,,,Mairie d'Issy,,,,,,,,,,,,,,,,,,,,,,stop_area,,,,,,,,,,,survey,,,,,,,public_transport,,,,,,
StopArea:Relation:2559316,48.821236,2.2644251,Place John Fitzgerald Kennedy,,,,,,,,,,,,,Place John Fitzgerald Kennedy,,,,,,,,,,,,,,,,,,,,,,stop_area,,,,,,,,,,,survey,,,,,,,public_transport,,,,,,
StopArea:Relation:2562625,48.861401099999995,2.3534683999999997,Rambuteau,,,,,,,,,,,,,Rambuteau,,,,,,,,,,,,,,,,,,,,,,stop_area,,,,,,,,,,,,,,,,,,public_transport,,,,,,
StopArea:Relation:2572756,48.8488721,2.3969887,Nation (2),,,,,,,,,,,,,Nation (2),,,,,,,,,,,,,,,,,,,,,,stop_area,,,subway,,,,,,,,,,,,,,,public_transport,,,,,,
StopArea:Relation:2572758,48.7530368,2.5052632999999997,Boissy Saint-Léger,4,,,,,,,,,,,,Boissy Saint-Léger,,,,,,,,,,,,,,,,,,,,RATP,,stop_area,,,,,,,,,,,,,,,,,,public_transport,,,8775820,,,
StopArea:Relation:2572759,48.8074477,2.5091696999999997,Champigny,,,,,,,,,,,,,Champigny,,,,,,,,,,,,,,,,,,,,RATP,,stop_area,,,,,,,,,,,,,,,,,,public_transport,,,,,,
StopArea:Relation:2572760,48.8210037,2.4638619999999998,Joinville-le-Pont,,,,,,,,,,,,,Joinville-le-Pont,,,,,,,,,,,,,,,,,,,,,,stop_area,,,,,,,,,,,,,,,,,,public_transport,,,,,,
StopArea:Relation:2572761,48.806815,2.4714449999999997,Saint-Maur - Créteil,,,,,,,,,,,,,Saint-Maur - Créteil,,,,,,,,,,,,,,,,,,,,,,stop_area,,,,,,,,,,,,,,,,,,public_transport,,,,,,
StopArea:Relation:2572762,48.8473177,2.4334903999999997,Vincennes,,,,,,,,,,,,,Vincennes,,,,,,,,,,,,,,,,,,,,,,stop_area,,,,,,,,,,,,,,,,,,public_transport,,,,,,
StopArea:Relation:2572763,48.8351671,2.4718177,Nogent-sur-Marne RER,,,,,,,,,,,,,Nogent-sur-Marne RER,,,,,,,,,,,,,,,,,,,,,,stop_area,,,,,,,,,,,,,,,,,,public_transport,,,,,,
StopArea:Relation:2572764,48.7720765,2.5075084,,,,,,,,,,,,,,,,,,,,,,,,,,,,,,,,,,,,stop_area,,,,,,,,,,,,,,,,,,public_transport,,,,,,
StopArea:Relation:2572765,48.8437078,2.4637379,,,,,,,,,,,,,,,,,,,,,,,,,,,,,,,,,,,,stop_area,,,,,,,,,,,,,,,,,,public_transport,,,,,,
StopArea:Relation:2572766,48.794489,2.5133069999999997,,,,,,,,,,,,,,,,,,,,,,,,,,,,,,,,,,,,stop_area,,,,,,,,,,,,,,,,,,public_transport,,,,,,
StopArea:Relation:2574202,48.8401673,2.3948445,Daumesnil (8),,,,,,,,,,,,,Daumesnil (8),,,,,,,,,,,,,,,,,,,,,,stop_area,,,subway,,,,,,,,,,,,,,,public_transport,,,,,,
StopArea:Relation:2600269,48.843367699999995,2.2224068,Parc de Saint-Cloud,,,,,,,,,,,,,Parc de Saint-Cloud,,,,,,,,,,,,,,,,,,,,,,stop_area,,,,,,,,,,,,,,,,,,public_transport,,,,,,
StopArea:Relation:2834050,48.9469407,2.257864,Argenteuil,,,,,,,,,,,,,Argenteuil,,,,,,,,,,,,,,,,,,,,,,stop_area,,,,,,,,,,,,,,,,,,public_transport,,,,,,
StopArea:Relation:2834052,48.9720722,1.8482200999999998,Aubergenville-Élisabethville,,,,,,,,,,,,,Aubergenville-Élisabethville,,,,,,,,,,,,,,,,,,,,,,stop_area,,,,,,,,,,,,,,,,,,public_transport,,,,,,
StopArea:Relation:2834055,49.0386543,1.5814895,Bonnières-sur-Seine,,,,,,,,,,,J,,Bonnières-sur-Seine,,,,,,,,,,,,Transilien,,,,,,,,SNCF,,stop_area,,,,,,,87415893,,,station,,,,,yes,,,public_transport,,,8741589,,,
StopArea:Relation:2834068,48.990475499999995,2.1617262999999998,Herblay,,,,,,,,,,,,,Herblay,,,,,,,,,,,,,,,,,,,,,,stop_area,,,,,,,,,,,,,,,,,,public_transport,,,,,,
StopArea:Relation:2834075,48.992514299999996,1.9132992999999998,Les Mureaux,,,,,,,,,,,,,Les Mureaux,,,,,,,,,,,,,,,,,,,,,,stop_area,,,,,,,,,,,,,,,,,,public_transport,,,,,,
StopArea:Relation:2834077,48.9841852,1.7473668,Limay,,,,,,,,,,,J,,Limay,,,,,,,,,,,,Transilien,,,,,,,,SNCF,,stop_area,,,,,,,87381582,,,station,,,,,yes,,,public_transport,,,8738158,,,
StopArea:Relation:2834089,48.883482799999996,2.2334967999999997,Puteaux,,,,,,,,,,,,,Puteaux,,,,,,,,,,,,,,,,,,,,,,stop_area,,,,,,,,,,,,,,,,,,public_transport,,,,,,
StopArea:Relation:2834090,48.997338199999994,1.6300006999999999,Rosny-sur-Seine,,,,,,,,,,,J,,Rosny-sur-Seine,,,,,,,,,,,,Transilien,,,,,,,,SNCF,,stop_area,,,,,,,87415885,,,station,,,,,yes,,,public_transport,,,8741588,,,
StopArea:Relation:2834093,48.9311398,2.2603633,Stade,,,,,,,,,,,,,Stade,,,,,,,,,,,,,,,,,,,,,,stop_area,,,,,,,,,,,,,,,,,,public_transport,,,,,,
StopArea:Relation:2834096,49.0985492,1.9709889999999999,Us,,,,,,,,,,,,,Us,,,,,,,,,,,,,,,,,,,,RATP,,stop_area,,,,,,,,,,,,,,,,,,public_transport,,,,,,
StopArea:Relation:2834100,48.9814325,1.9827601,Vernouillet - Verneuil,,,,,,,,,,,,,Vernouillet - Verneuil,,,,,,,,,,,,,,,,,,,,,,stop_area,,,,,,,,,,,,,,,,,,public_transport,,,,,,
StopArea:Relation:2834101,48.9408971,1.9993828,Villennes-Sur-Seine,,,,,,,,,,,,,Villennes-Sur-Seine,,,,,,,,,,,,,,,,,,,,,,stop_area,,,,,,,,,,,,,,,,,,public_transport,,,,,,
StopArea:Relation:2954804,48.8873104,2.3596117,Département - Marx Dormoy,,,,,,,,,,,,,Département - Marx Dormoy,,DEPARTEMENT - MARX DORMOY,,,,,,,,,,,,,,,,,,RATP,,stop_area,,,,,,,,,,,,,,,,,,public_transport,,,,,,
StopArea:Relation:2954805,48.890267699999995,2.3590879,Ordener - Marx Dormoy,,,,,,,,,,,,,Ordener - Marx Dormoy,,ORDENER - MARX DORMOY,,,,,,,,,,,,,,,,,,RATP,,stop_area,,,,,,,,,,,,,,,,,,public_transport,,,,,,
StopArea:Relation:2954808,48.885079499999996,2.3593617,Place de la Chapelle,,,,,,,,,,,,,Place de la Chapelle,,PLACE DE LA CHAPELLE,,,,,,,,,,,,,,,,,,RATP,,stop_area,,,,,,,,,,,,,,,,,,public_transport,,,,,,
StopArea:Relation:2960515,48.833987,2.3178924,,,,,,,,,,,,,,,,,,,,,,,,,,,,,,,,,,,,stop_area,,,,,,,,,,,,,,,,,,public_transport,,,,,,
StopArea:Relation:2971750,48.8951467,2.3717010999999997,Crimée - Aubervilliers,1,,,,,,,,,,,,Crimée - Aubervilliers,,,,,,,,,,,,,,,,,,,,RATP,,stop_area,,,,,,,,,,,,,,,,,,public_transport,,,,,,
StopArea:Relation:2971751,48.8929391,2.3630611,Place Hébert,,,,,,,,,,,,,Place Hébert,,,,,,,,,,,,,,,,,,,,RATP,,stop_area,,,,,,,,,,,,,,,,,,public_transport,,,,,,
StopArea:Relation:2971752,48.891423599999996,2.3611828999999998,Place de Torcy,,,,,,,,,,,,,Place de Torcy,,,,,,,,,,,,,,,,,,,,RATP,,stop_area,,,,,,,,,,,,,,,,,,public_transport,,,,,,
StopArea:Relation:2971753,48.894260599999996,2.3656734,Tristan Tzara,,,,,,,,,,,,,Tristan Tzara,,TRISTAN TZARA,,,,,,,,,,,,,,,,,,RATP,,stop_area,,,,,,,,,,,,,,,,,,public_transport,,,,,,
StopArea:Relation:2971754,48.895195199999996,2.3694595,Évangile - Aubervilliers,1,,,,,,,,,,,,Évangile - Aubervilliers,,,,,,,,,,,,Bus,,,,,,,,RATP,,stop_area,,,,,,,,,,,,,,,,,,public_transport,,,,,,
StopArea:Relation:2971935,48.8868781,2.3613097,Pajol - Département,1,,,,,,,,,,,,Pajol - Département,,,,,,,,,,,,,,,,,,,,RATP,,stop_area,,,,,,,,,,,,,,,,,,public_transport,,,,,,
StopArea:Relation:2971936,48.8898844,2.3634600999999997,Pajol - Riquet,1,,,,,,,,,,,,Pajol - Riquet,,,,,,,,,,,,,,,,,,,,RATP,,stop_area,,,,,,,,,,,,,,,,,,public_transport,,,,,,
StopArea:Relation:2971937,48.8881927,2.3621095999999997,Pajol,1,,,,,,,,,,,,Pajol,,,,,,,,,,,,,,,,,,,,RATP,,stop_area,,,,,,,,,,,,,,,,,,public_transport,,,,,,
StopArea:Relation:2973704,48.8956635,2.359323,Boucry,1,,,,,,,,,,,,Boucry,,,,,,,,,,,,,,,,,,,,RATP,,stop_area,,,,,,,,,,,,,,,,,,public_transport,,,,,,
StopArea:Relation:2973705,48.8928017,2.3595846,Les Roses,,,,,,,,,,,,,Les Roses,,,,,,,,,,,,,,,,,,,,RATP,,stop_area,,,,,,,,,,,,,,,,,,public_transport,,,,,,
StopArea:Relation:2978343,48.897586999999994,2.3590397999999997,Porte de la Chapelle,1,,,,,,,,,,,,Porte de la Chapelle,,PORTE DE LA CHAPELLE,,,,,,,,,,,,,,,,,,RATP,,stop_area,,,,,,,,,,,,,,,,,,public_transport,,,,,,
StopArea:Relation:2979829,48.881823499999996,2.3584148,Cail - Demarquay,1,,,,,,,,,,,,Cail - Demarquay,,,,,,,,,,,,,,,,,,,,RATP,,stop_area,,,,,,,,,,,,,,,,,,public_transport,,,,,,
StopArea:Relation:2979830,48.890543799999996,2.3550507,Pont Marcadet,1,,,,,,,,,,,,Pont Marcadet,,,,,,,,,,,,RATP,,,,,,,,RATP,,stop_area,,,,,,,,,,,,,,,,,,public_transport,,,,,,
StopArea:Relation:2989342,48.8862829,2.3566228,Saint-Bruno,1,,,,,,,,,,,,Saint-Bruno,,,,,,,,,,,,,,,,,,,,RATP,,stop_area,,,,,,,,,,,,,,,,,,public_transport,,,,,,
StopArea:Relation:2989489,48.8843209,2.3672269,Stalingrad,,,,,,,,,,,,,Stalingrad,,,,,,,,,,,,RATP,,,,,,,,RATP,,stop_area,,,,,,,,,,,,,,,,,,public_transport,,,,,,
StopArea:Relation:2994093,48.8777578,2.3563793,Valenciennes,1,,,,,,,,,,,,Valenciennes,,,,,,,,,,,,RATP,,,,,,,,RATP,,stop_area,,,,,11337299,,,,,,,,,,,,,public_transport,,,,,,
StopArea:Relation:3022945,48.428036399999996,2.1449502,,,,,,,,,,,,,,,,,,,,,,,,,,,,,,,,,,,,stop_area,,,,,,,,,,,,,,,,,,public_transport,,,,,,
StopArea:Relation:3045951,48.4131626,2.0467549,Chalo-Saint-Mars - Creux Chemin,,,,,,,,,,,,,Chalo-Saint-Mars - Creux Chemin,,,,,,,,,,,,Ormont Transport,,,,,,,,Ormont Transport,,stop_area,,,,,,,,,,,,,,,,,,public_transport,,,,,,
StopArea:Relation:3059815,48.8743177,2.5832838,Chelles - Gournay,,,,,,,,,,,,,Chelles - Gournay,,,,,,,,,,,,,,,,,,,,,,stop_area,,,,,,,,,,,,,,,,,,public_transport,,,,,,
StopArea:Relation:3078773,48.8601211,2.3248382999999997,Musée d'Orsay,,,,,,,,,,,C,,Musée d'Orsay,,,,,,,,,,,,Transilien,,,,,,,,SNCF,,stop_area,,,,,,,87547307,,,station,,,,,yes,,,public_transport,,,8754730,,Q15260427,
StopArea:Relation:3085427,48.860255699999996,2.2939559,Pont de l'Alma,,,,,,,,,,,C,,Pont de l'Alma,,,,,,,,,,,,Transilien,,,,,,,,SNCF,,stop_area,,,,,,,87393041,,,station,,,,,yes,,,public_transport,,,8739304,,,
StopArea:Relation:3085432,48.8551143,2.2890315,Champ de Mars - Tour Eiffel,,,,,,,,,,,C,,Champ de Mars - Tour Eiffel,,,,,,,,,,,,Transilien,,,,,,,,SNCF,,stop_area,,,,,,,87393058,,,station,,,,,yes,,,public_transport,,,8739305,,,
StopArea:Relation:3085436,48.8298284,2.263248,Issy Val-de-Seine,,,,,,,,,,,C,,Issy Val-de-Seine,,,,,,,,,,,,Transilien,,,,,,,,SNCF,,stop_area,,,,,,,87393306,,,station,,,,,yes,,,public_transport,,,8739330,,,
StopArea:Relation:3085437,48.846393899999995,2.2772343999999998,Javel,,,,,,,,,,,C,,Javel,,,,,,,,,,,,Transilien,,,,,,,,SNCF,,stop_area,,,,,,,87393066,,,station,,,,,yes,,,public_transport,,,8739306,,,
StopArea:Relation:3085438,48.8390935,2.2702942,Pont du Garigliano - Hôpital européen Georges-Pompidou,,,,,,,,,,,C,,Pont du Garigliano - Hôpital européen Georges-Pompidou,,,,,,,,,,,,Transilien,PONT DU GARIGLIANO - HÔPITAL EUROPEEN GEORGES POMPIDOU,,Javel,Boulevard Victor - Pont du Garigliano,Boulevard Victor,Pont du Garigliano,,SNCF,,stop_area,,,,,,,87393322,,,station,,,,,yes,,,public_transport,,,8739332,,,
StopArea:Relation:3085623,48.8538986,2.3440749999999997,Saint-Michel Notre-Dame,,,,,,,87785436,,,,C,,Saint-Michel Notre-Dame,,,,,,,,,,,,Transilien,,,,,,,,SNCF,,stop_area,,,,,,,87547315,,,station,,,,,yes,,,public_transport,,,8754731,,,
StopArea:Relation:3088589,48.7454842,2.4174857,Les Saules,,,,,,,,,,,C,,Les Saules,,,,,,,,,,,,Transilien,,,,,,,,SNCF,,stop_area,,,,,,,87546226,,,station,,,,,yes,,,public_transport,,,8754622,,,
StopArea:Relation:3088653,48.741837499999995,2.4022494,Orly Ville,,,,,,,,,,,C,,Orly Ville,,,,,,,,,,,,Transilien,,,,,,,,SNCF,,stop_area,,,,,,,87546200,,,station,,,,,yes,,,public_transport,,,8754620,,,
StopArea:Relation:3088689,48.7481021,2.3731468,Pont de Rungis Aéroport d'Orly,,,,,,,,,,,C,,Pont de Rungis Aéroport d'Orly,,,,,,,,,,,,Transilien,,,,,,,,SNCF,,stop_area,,,,,,,87546192,,,station,,,,,yes,,,public_transport,,,8754619,,,
StopArea:Relation:3111752,48.8384682,2.6555869,Torcy RER,,,,,,,,,,,,,Torcy RER,,,,,,,,,,,,,,,,,,,,,,stop_area,,,,,,,,,,,,,,,,,,public_transport,,,,,,
StopArea:Relation:3132944,48.8654893,2.5644278,Pointe de Gournay,,,,,,,,,,,,,Pointe de Gournay,,,,,,,,,,,,,,,,,,,,,,stop_area,,,,,,,,,,,,,,,,,,public_transport,,,,,,
StopArea:Relation:3133008,48.8647025,2.4170351,Bagnolet - Galliéni,,,,,,,,,,,,,Bagnolet - Galliéni,,,,,,,,,,,,,,,,,,,,,,stop_area,,,,,,,,,,,,,,,,,,public_transport,,,,,,
StopArea:Relation:3161302,48.7797087,2.280499,,,,,,,,,,,,,,,,,,,,,,,,,,,,,,,,,,,,stop_area,,,,,,,,,,,,,,,,,,public_transport,,,,,,
StopArea:Relation:3161308,48.7736169,2.2402745,,,,,,,,,,,,,,,,,,,,,,,,,,,,,,,,,,,,stop_area,,,,,,,,,,,,,,,,,,public_transport,,,,,,
StopArea:Relation:3161309,48.7793541,2.2613684,,,,,,,,,,,,,,,,,,,,,,,,,,,,,,,,,,,,stop_area,,,,,,,,,,,,,,,,,,public_transport,,,,,,
StopArea:Relation:3161310,48.7763882,2.2489972,,,,,,,,,,,,,,,,,,,,,,,,,,,,,,,,,,,,stop_area,,,,,,,,,,,,,,,,,,public_transport,,,,,,
StopArea:Relation:3161311,48.77644,2.257141,,,,,,,,,,,,,,,,,,,,,,,,,,,,,,,,,,,,stop_area,,,,,,,,,,,,,,,,,,public_transport,,,,,,
StopArea:Relation:3161312,48.7767285,2.2466102,,,,,,,,,,,,,,,,,,,,,,,,,,,,,,,,,,,,stop_area,,,,,,,,,,,,,,,,,,public_transport,,,,,,
StopArea:Relation:3161616,48.874386699999995,2.5835814,Gare RER-SNCF de Chelles-Gournay,,,,,,,,,,,,,Gare RER-SNCF de Chelles-Gournay,,,,,,,,,,,,,,,,,,,,,,stop_area,,,,,,,,,,,,,,,,,,public_transport,,,,,,
StopArea:Relation:3165658,48.783149699999996,2.2819384,,,,,,,,,,,,,,,,,,,,,,,,,,,,,,,,,,,,stop_area,,,,,,,,,,,,,,,,,,public_transport,,,,,,
StopArea:Relation:3165666,48.7834015,2.2766286,,,,,,,,,,,,,,,,,,,,,,,,,,,,,,,,,,,,stop_area,,,,,,,,,,,,,,,,,,public_transport,,,,,,
StopArea:Relation:3165670,48.7831742,2.2742486,,,,,,,,,,,,,,,,,,,,,,,,,,,,,,,,,,,,stop_area,,,,,,,,,,,,,,,,,,public_transport,,,,,,
StopArea:Relation:3165676,48.7836413,2.2710452,,,,,,,,,,,,,,,,,,,,,,,,,,,,,,,,,,,,stop_area,,,,,,,,,,,,,,,,,,public_transport,,,,,,
StopArea:Relation:3165682,48.7829341,2.2659862,,,,,,,,,,,,,,,,,,,,,,,,,,,,,,,,,,,,stop_area,,,,,,,,,,,,,,,,,,public_transport,,,,,,
StopArea:Relation:3165702,48.781385799999995,2.263578,,,,,,,,,,,,,,,,,,,,,,,,,,,,,,,,,,,,stop_area,,,,,,,,,,,,,,,,,,public_transport,,,,,,
StopArea:Relation:3165728,48.7813405,2.2558726,,,,,,,,,,,,,,,,,,,,,,,,,,,,,,,,,,,,stop_area,,,,,,,,,,,,,,,,,,public_transport,,,,,,
StopArea:Relation:3165730,48.7802453,2.2576959,,,,,,,,,,,,,,,,,,,,,,,,,,,,,,,,,,,,stop_area,,,,,,,,,,,,,,,,,,public_transport,,,,,,
StopArea:Relation:3165738,48.782313699999996,2.2545021999999997,,,,,,,,,,,,,,,,,,,,,,,,,,,,,,,,,,,,stop_area,,,,,,,,,,,,,,,,,,public_transport,,,,,,
StopArea:Relation:3165748,48.7786985,2.2509962,,,,,,,,,,,,,,,,,,,,,,,,,,,,,,,,,,,,stop_area,,,,,,,,,,,,,,,,,,public_transport,,,,,,
StopArea:Relation:3165754,48.777623299999995,2.2400477999999997,,,,,,,,,,,,,,,,,,,,,,,,,,,,,,,,,,,,stop_area,,,,,,,,,,,,,,,,,,public_transport,,,,,,
StopArea:Relation:3165856,48.7791515,2.2917666,,,,,,,,,,,,,,,,,,,,,,,,,,,,,,,,,,,,stop_area,,,,,,,,,,,,,,,,,,public_transport,,,,,,
StopArea:Relation:3165863,48.7787532,2.2879229,,,,,,,,,,,,,,,,,,,,,,,,,,,,,,,,,,,,stop_area,,,,,,,,,,,,,,,,,,public_transport,,,,,,
StopArea:Relation:3165866,48.7790748,2.2834537,,,,,,,,,,,,,,,,,,,,,,,,,,,,,,,,,,,,stop_area,,,,,,,,,,,,,,,,,,public_transport,,,,,,
StopArea:Relation:3165885,48.7756938,2.2885017,,,,,,,,,,,,,,,,,,,,,,,,,,,,,,,,,,,,stop_area,,,,,,,,,,,,,,,,,,public_transport,,,,,,
StopArea:Relation:3165889,48.770702899999996,2.2868082999999997,,,,,,,,,,,,,,,,,,,,,,,,,,,,,,,,,,,,stop_area,,,,,,,,,,,,,,,,,,public_transport,,,,,,
StopArea:Relation:3165895,48.7670734,2.2899273,,,,,,,,,,,,,,,,,,,,,,,,,,,,,,,,,,,,stop_area,,,,,,,,,,,,,,,,,,public_transport,,,,,,
StopArea:Relation:3165896,48.762327899999995,2.2910437,,,,,,,,,,,,,,,,,,,,,,,,,,,,,,,,,,,,stop_area,,,,,,,,,,,,,,,,,,public_transport,,,,,,
StopArea:Relation:3165908,48.7560946,2.2953578,,,,,,,,,,,,,,,,,,,,,,,,,,,,,,,,,,,,stop_area,,,,,,,,,,,,,,,,,,public_transport,,,,,,
StopArea:Relation:3165909,48.755197599999995,2.3009024,,,,,,,,,,,,,,,,,,,,,,,,,,,,,,,,,,,,stop_area,,,,,,,,,,,,,,,,,,public_transport,,,,,,
StopArea:Relation:3165910,48.7548757,2.2968478,,,,,,,,,,,,,,,,,,,,,,,,,,,,,,,,,,,,stop_area,,,,,,,,,,,,,,,,,,public_transport,,,,,,
StopArea:Relation:3172213,48.790490999999996,2.2524547,,,,,,,,,,,,,,,,,,,,,,,,,,,,,,,,,,,,stop_area,,,,,,,,,,,,,,,,,,public_transport,,,,,,
StopArea:Relation:3172221,48.803227,2.2572983,Place du Garde,,,,,,,,,,,,,Place du Garde,,,,,,,,,,,,,,,,,,,,,,stop_area,,,,,,,,,,,,,,,,,,public_transport,,,,,,
StopArea:Relation:3172222,48.8050655,2.2592974999999997,Marquis,,,,,,,,,,,,,Marquis,,,,,,,,,,,,,,,,,,,,,,stop_area,,,,,,,,,,,,,,,,,,public_transport,,,,,,
StopArea:Relation:3172238,48.8170571,2.2610126999999998,,,,,,,,,,,,,,,,,,,,,,,,,,,,,,,,,,,,stop_area,,,,,,,,,,,,,,,,,,public_transport,,,,,,
StopArea:Relation:3172244,48.7784495,2.2460302,,,,,,,,,,,,,,,,,,,,,,,,,,,,,,,,,,,,stop_area,,,,,,,,,,,,,,,,,,public_transport,,,,,,
StopArea:Relation:3172252,48.8198231,2.2669118,,,,,,,,,,,,,,,,,,,,,,,,,,,,,,,,,,,,stop_area,,,,,,,,,,,,,,,,,,public_transport,,,,,,
StopArea:Relation:3172269,48.8275637,2.2714024,,,,,,,,,,,,,,,,,,,,,,,,,,,,,,,,,,,,stop_area,,,,,,,,,,,,,,,,,,public_transport,,,,,,
StopArea:Relation:3172273,48.8277256,2.2680664999999998,,,,,,,,,,,,,,,,,,,,,,,,,,,,,,,,,,,,stop_area,,,,,,,,,,,,,,,,,,public_transport,,,,,,
StopArea:Relation:3175093,48.7845952,2.2425761,,,,,,,,,,,,,,,,,,,,,,,,,,,,,,,,,,,,stop_area,,,,,,,,,,,,,,,,,,public_transport,,,,,,
StopArea:Relation:3175114,48.7890246,2.2341349999999998,Tapis Vert,,,,,,,,,,,,,Tapis Vert,,,,,,,,,,,,,,,,,,,,,,stop_area,,,,,,,,,,,,,,,,,,public_transport,,,,,,
StopArea:Relation:3175117,48.7859317,2.2295589,Le Lac,,,,,,,,,,,,,Le Lac,,,,,,,,,,,,,,,,,,,,,,stop_area,,,,,,,,,,,,,,,,,,public_transport,,,,,,
StopArea:Relation:3175128,48.786955,2.225349,,,,,,,,,,,,,,,,,,,,,,,,,,,,,,,,,,,,stop_area,,,,,,,,,,,,,,,,,,public_transport,,,,,,
StopArea:Relation:3175154,48.7873114,2.2184002,,,,,,,,,,,,,,,,,,,,,,,,,,,,,,,,,,,,stop_area,,,,,,,,,,,,,,,,,,public_transport,,,,,,
StopArea:Relation:3175155,48.7882191,2.2119453,,,,,,,,,,,,,,,,,,,,,,,,,,,,,,,,,,,,stop_area,,,,,,,,,,,,,,,,,,public_transport,,,,,,
StopArea:Relation:3177468,49.0229205,2.4620732999999997,Goussainville RER,,,,,,,,,,,,,Goussainville RER,Goussainville RER,,Goussainville,,,,,,,,,,,,,,,,,,,stop_area,,,,,,,,,,,,,,,,,,public_transport,,,,,,
StopArea:Relation:3185899,48.898328,2.3704897,Porte d'Aubervilliers,1,,,,,,,,,,,,Porte d'Aubervilliers,,,,,,,,,,,,,,,,,,,,RATP,,stop_area,,,,,,,,,,,,,,,,,,public_transport,,,,,,
StopArea:Relation:3208652,48.8888757,2.3560908,Doudeauville,1,,,,,,,,,,,,Doudeauville,,,,,,,,,,,,Bus,,,,,,,,RATP,,stop_area,,,,,,,,,,,,,,,,,,public_transport,,,,,,
StopArea:Relation:3221771,48.8895829,2.3714291999999997,Curial–Archereau,,,,,,,,,,,,,Curial–Archereau,,,,,,,,,,,,Bus,,,,,,,,RATP,,stop_area,,,,,,,,,,,,,,,,,,public_transport,,,,,,
StopArea:Relation:3221772,48.8934773,2.3732425999999998,Curial–Crimée,,,,,,,,,,,,,Curial–Crimée,,,,,,,,,,,,Bus,,,,,,,,RATP,,stop_area,,,,,,,,,,,,,,,,,,public_transport,,,,,,
StopArea:Relation:3221773,48.8915538,2.3723291,Mathis,,,,,,,,,,,,,Mathis,,,,,,,,,,,,Bus,,,,,,,,RATP,,stop_area,,,,,,,,,,,,,,,,,,public_transport,,,,,,
StopArea:Relation:3221774,48.8897202,2.3677539999999997,Riquet,,,,,,,,,,,,,Riquet,,,,,,,,,,,,Bus,,,,,,,,RATP,,stop_area,,,,,,,,,,,,,,,,,,public_transport,,,,,,
StopArea:Relation:3222685,48.8871156,2.3669582,Maroc,,,,,,,,,,,,,Maroc,,,,,,,,,,,,Bus,,,,,,,,RATP,,stop_area,,,,,,,,,,,,,,,,,,public_transport,,,,,,
StopArea:Relation:3222686,48.8926745,2.3694892999999997,Radiguet,,,,,,,,,,,,,Radiguet,,,,,,,,,,,,Bus,,,,,,,,RATP,,stop_area,,,,,,,,,,,,,,,,,,public_transport,,,,,,
StopArea:Relation:3222687,48.8898356,2.3681859,Riquet,,,,,,,,,,,,,Riquet,,,,,,,,,,,,Bus,,,,,,,,RATP,,stop_area,,,,,,,,,,,,,,,,,,public_transport,,,,,,
StopArea:Relation:3223469,48.879323799999995,2.3558425,Lafayette − Dunkerque,,,,,,,,,,,,,Lafayette − Dunkerque,,,,,,,,,,,,Bus,,,,,,,,RATP,,stop_area,,,,,,,,,,,,,,,,,,public_transport,,,,,,
StopArea:Relation:3225131,48.839488499999995,2.3829689,Gare de Bercy,,,,,,,,,,,,,Gare de Bercy,,,,,,,,,,,,,,,,,,,,SNCF,,stop_area,,,,,,,,,,,,,,,,,,public_transport,,,8768666,,,
StopArea:Relation:3239900,48.8712251,2.3605972,Jacques Bonsergent,,,,,,,,,,,,,Jacques Bonsergent,,,,,,,,,,,,,,,,,,,,RATP,,stop_area,,,,,,,,,,,,,,,,,,public_transport,,,,,,
StopArea:Relation:3239901,48.8745256,2.3586705,Magenta − Saint-Martin,,,,,,,,,,,,,Magenta − Saint-Martin,,,,,,,,,,,,Bus,,,,,,,,RATP,,stop_area,,,,,,,,,,,,,,,,,,public_transport,,,,,,
StopArea:Relation:3239902,48.8735366,2.3585206,Strasbourg–Magenta,,,,,,,,,,,,,Strasbourg–Magenta,,,,,,,,,,,,Bus,,,,,,,,RATP,,stop_area,,,,,11346527,,,,,,,,,,,,,public_transport,,,,,,
StopArea:Relation:3241529,48.8676132,2.3637961,"République (8, 9)",,,,,,,,,,,,,"République (8, 9)",,,,,,Republik,,République,,,,,,,,,,,,RATP,,stop_area,,,,,,,,,,,,,,,,,,public_transport,,,,,Q1341849,
StopArea:Relation:3241702,48.864923499999996,2.3657927,Jean-Pierre Timbaud,,,,,,,,,,,,,Jean-Pierre Timbaud,,,,,,,,,,,,Bus,,,,,,,,RATP,,stop_area,,,,,,,,,,,,,,,,,,public_transport,,,,,,
StopArea:Relation:3241703,48.8619845,2.3671289,Oberkampf - Filles du Calvaire,,,,,,,,,,,,,Oberkampf - Filles du Calvaire,,,,,,,,,,,,Bus,,,,,,,,RATP,,stop_area,,,,,,,,,,,,,,,,,,public_transport,,,,,,
StopArea:Relation:3241704,48.8597616,2.3676825999999997,Saint-Claude,,,,,,,,,,,,,Saint-Claude,,,,,,,,,,,,Bus,,,,,,,,RATP,,stop_area,,,,,,,,,,,,,,,,,,public_transport,,,,,,
StopArea:Relation:3241705,48.857379599999994,2.3681183,Saint-Gilles – Chemin Vert,,,,,,,,,,,,,Saint-Gilles – Chemin Vert,,,,,,,,,,,,Bus,,,,,,,,RATP,,stop_area,,,,,,,,,,,,,,,,,,public_transport,,,,,,
StopArea:Relation:3243404,48.854355299999995,2.3688498,Bastille - Beaumarchais,,,,,,,,,,,,,Bastille - Beaumarchais,,,,,,,,,,,,Bus,,,,,,,,RATP,,stop_area,,,,,,,,,,,,,,,,,,public_transport,,,,,,
StopArea:Relation:3243405,48.8553831,2.3685992,Pasteur - Wagner,,,,,,,,,,,,,Pasteur - Wagner,,,,,,,,,,,,Bus,,,,,,,,RATP,,stop_area,,,,,,,,,,,,,,,,,,public_transport,,,,,,
StopArea:Relation:3243684,48.8487649,2.3709514,Lyon - Ledru-Rollin,,,,,,,,,,,,,Lyon - Ledru-Rollin,,,,,,,,,,,,Bus,,,,,,,,RATP,,stop_area,,,,,,,,,,,,,,,,,,public_transport,,,,,,
StopArea:Relation:3249985,48.906551,2.4439984999999997,Hôtel de Ville de Bobigny,3,,,,,,,,,,,,Hôtel de Ville de Bobigny,,,,,,,,,,,,Tramway,,,,,,,,RATP,,stop_area,,,,,433650,,,,,,,,,,,,,public_transport,,,,,,
StopArea:Relation:3249986,48.9069335,2.4385726,Libération,3,,,,,,,,,,,,Libération,,,,,,,,,,,,Tramway,,,,,,,,RATP,,stop_area,,,,,142789,,,,,,,,,,,,,public_transport,,,,,,
StopArea:Relation:3256308,48.8954338,2.4251929,Bobigny - Pantin - Raymond Queneau,,,,,,,,,,,,,Bobigny - Pantin - Raymond Queneau,,,,,,,,,,,,,,,,,,,,RATP,,stop_area,,,,,,,,,,,,,,,,,,public_transport,,,,,,
StopArea:Relation:3263516,48.8933057,2.3361255,Damrémont - Ordener,,,,,,,,,,,,,Damrémont - Ordener,,,,,,,,,,,,Bus,,,,,,,,RATP,,stop_area,,,,,,,,,,,,,,,,,,public_transport,,,,,,
StopArea:Relation:3263517,48.8931609,2.3397133,Duhesme - Le Ruisseau,,,,,,,,,,,,,Duhesme - Le Ruisseau,,,,,,,,,,,,Bus,,,,,,,,RATP,,stop_area,,,,,,,,,,,,,,,,,,public_transport,,,,,,
StopArea:Relation:3263518,48.8925555,2.3445698,Mairie du 18e - Jules Joffrin,,,,,,,,,,,,,Mairie du 18e - Jules Joffrin,,,,,,,,,,,,,,,,,,,,RATP,,stop_area,,,,,,,,,,,,,,,,,,public_transport,,,,,,
StopArea:Relation:3263519,48.8914487,2.3502585,Marcadet - Poissonniers,,,,,,,,,,,,,Marcadet - Poissonniers,,,,,,,,,,,,Bus,,,,,,,,RATP,,stop_area,,,,,,,,,,,,,,,,,,public_transport,,,,,,
StopArea:Relation:3266731,48.900895999999996,2.44218,Jean Jaurès,,,,,,,,,,,,,Jean Jaurès,,,,,,,,,,,,Bus,,,,,,,,RATP,,stop_area,,,,,,,,,,,,,,,,,,public_transport,,,,,,
StopArea:Relation:3266732,48.897925799999996,2.4423406,La Folie,,,,,,,,,,,,,La Folie,,,,,,,,,,,,Bus,,,,,,,,RATP,,stop_area,,,,,,,,,,,,,,,,,,public_transport,,,,,,
StopArea:Relation:3266733,48.901998899999995,2.4405986,Louise Michel,,,,,,,,,,,,,Louise Michel,,,,,,,,,,,,Bus,,,,,,,,RATP,,stop_area,,,,,,,,,,,,,,,,,,public_transport,,,,,,
StopArea:Relation:3271053,48.847305299999995,2.3164903999999997,Duroc,,,,,,,,,,,,,Duroc,,,,,,,,,,,,,,,,,,,,,,stop_area,,,,,,,,,,,,,,,,,,public_transport,,,,,,
StopArea:Relation:3271834,48.8966275,2.4319235,Avenue de Metz,,,,,,,,,,,,,Avenue de Metz,,,,,,,,,,,,Bus,,,,,,,,RATP,,stop_area,,,,,,,,,,,,,,,,,,public_transport,,,,,,
StopArea:Relation:3284760,48.8541856,2.1320976,Bougival,,,,,,,,,,,,,Bougival,,,,,,,,,,,,,,,,,,,,,,stop_area,,,,,,,,,,,,,,,,,,public_transport,,,,,,
StopArea:Relation:3284761,48.8382654,2.1868165,Garches - Marnes la Coquette,,,,,,,,,,,,,Garches - Marnes la Coquette,,,,,,,,,,,,,,,,,,,,,,stop_area,,,,,,,,,,,,,,,,,,public_transport,,,,,,
StopArea:Relation:3284762,48.8370635,2.1515952,Gare de Vaucresson,,,,,,,,,,,,,Gare de Vaucresson,,,,,,,,,,,,,,,,,,,,,,stop_area,,,,,,,,,,,,,,,,,,public_transport,,,,,,
StopArea:Relation:3284763,48.8675998,2.0759971999999998,L'Étang-la-Ville,,,,,,,,,,,,,L'Étang-la-Ville,,,,,,,,,,,,,,,,,,,,,,stop_area,,,,,,,,,,,,,,,,,,public_transport,,,,,,
StopArea:Relation:3284765,48.8611569,2.1242842,Louveciennes,,,,,,,,,,,,,Louveciennes,,,,,,,,,,,,,,,,,,,,,,stop_area,,,,,,,,,,,,,,,,,,public_transport,,,,,,
StopArea:Relation:3284766,48.8715633,2.0965743999999997,Marly-le-Roi,,,,,,,,,,,,,Marly-le-Roi,,,,,,,,,,,,,,,,,,,,,,stop_area,,,,,,,,,,,,,,,,,,public_transport,,,,,,
StopArea:Relation:3284767,48.8677196,2.0511307,Saint-Nom-la-Bretèche — Forêt de Marly,,,,,,,,,,,,,Saint-Nom-la-Bretèche — Forêt de Marly,,,,,,,,,,,,,,,,,,,,,,stop_area,,,,,,,,,,,,,,,,,,public_transport,,,,,,
StopArea:Relation:3284768,48.8715902,2.2209422,Suresnes Mont-Valérien,,,,,,,,,,,,,Suresnes Mont-Valérien,,,,,,,,,,,,,,,,,,,,,,stop_area,,,,,,,,,,,,,,,,,,public_transport,,,,,,
StopArea:Relation:3289673,48.958155299999994,2.3283815,Épinay - Villetaneuse,,,,,,,,,,,,,Épinay - Villetaneuse,,,,,,,,,,,,,,,,,,,,,,stop_area,,,,,,,,,,,,,,,,,,public_transport,,,,,,
StopArea:Relation:3291949,48.958155299999994,2.3283815,Épinay - Villetaneuse,,,,,,,,,,,,,Épinay - Villetaneuse,,,,,,,,,,,,,,,,,,,,,,stop_area,,,,,,,,,,,,,,,,,,public_transport,,,,,,
StopArea:Relation:3298232,49.045100399999995,2.3228288999999998,Bouffémont — Moisselles,,,,,,,,,,,,,Bouffémont — Moisselles,,,,,,,,,,,,,,,,,,,,,,stop_area,,,,,,,,,,,,,,,,,,public_transport,,,,,,
StopArea:Relation:3298233,49.032773399999996,2.3377456999999997,Domont,,,,,,,,,,,,,Domont,,,,,,,,,,,,,,,,,,,,,,stop_area,,,,,,,,,,,,,,,,,,public_transport,,,,,,
StopArea:Relation:3298234,49.066027399999996,2.3223525,Montsoult — Maffliers,,,,,,,,,,,,,Montsoult — Maffliers,,,,,,,,,,,,,,,,,,,,,,stop_area,,,,,,,,,,,,,,,,,,public_transport,,,,,,
StopArea:Relation:3298235,49.113533,2.287716,Presles - Courcelles,,,,,,,,,,,,,Presles - Courcelles,,,,,,,,,,,,,,,,,,,,,,stop_area,,,,,,,,,,,,,,,,,,public_transport,,,,,,
StopArea:Relation:3300430,48.794956899999995,2.1364207,Versailles Chantiers,,,,,,,,,,,C;N;U,,Versailles Chantiers,,,,,,,,,,,,Transilien,,,,,,,,SNCF,,stop_area,,,,,,,87393009,,,station,,,,,yes,,,public_transport,,,8739300,,,
StopArea:Relation:3301264,48.800577999999994,2.1291417999999998,Versailles Château Rive-Gauche,,,,,Versailles Rive-Gauche - Château de Versailles,,,,,,C,,Versailles Château Rive-Gauche,,,,,,,,,,,,Transilien,,,,,,,04:00-00:45,SNCF,,stop_area,,,,,,,87393157,,,station,,,,,yes,,,public_transport,,,8739315,,,
StopArea:Relation:3301937,48.984363099999996,2.3534922,Groslay,,,,,,,,,,,,,Groslay,,,,,,,,,,,,,,,,,,,,,,stop_area,,,,,,,,,,,,,,,,,,public_transport,,,,,,
StopArea:Relation:3301939,49.0229548,2.3626416999999997,Écouen - Ézanville,,,,,,,,,,,,,Écouen - Ézanville,,,,,,,,,,,,,,,,,,,,,,stop_area,,,,,,,,,,,,,,,,,,public_transport,,,,,,
StopArea:Relation:3306075,48.865980699999994,2.3649815999999997,République - Temple,,,,,,,,,,,,,République - Temple,,,,,,,,,,,,Bus,,,,,,,,RATP,,stop_area,,,,,,,,,,,,,,,,,,public_transport,,,,,,
StopArea:Relation:3322144,48.8005962,2.4023889,Gare de Vitry-sur-Seine,,,,,,,,,,,,,Gare de Vitry-sur-Seine,,,,,,,,,,,,,,,,,,,,,,stop_area,,,,,,,,,,,,,,,,,,public_transport,,,,,,
StopArea:Relation:3322300,48.5351784,1.9950603999999998,,,,,,,,,,,,,,,,,,,,,,,,,,,,,,,,,,,,stop_area,,,,,,,,,,,,,,,,,,public_transport,,,,,,
StopArea:Relation:3322335,48.5336946,2.0094673,,,,,,,,,,,,,,,,,,,,,,,,,,,,,,,,,,,,stop_area,,,,,,,,,,,,,,,,,,public_transport,,,,,,
StopArea:Relation:3322384,48.722802699999995,2.4165452,Ablon,,,,,,,,,,,C,,Ablon,,,,,,,,,,,,Transilien,,,,,,,,SNCF,,stop_area,,,,,,,87545269,,,station,,,,,yes,,,public_transport,,,8754526,,,
StopArea:Relation:3322385,48.586071399999994,2.2412739,Arpajon,,,,,,,,,,,C,,Arpajon,,,,,,,,,,,,Transilien,,,,,,,,SNCF,2,stop_area,,,,,,,87545467,,,station,cadastre-dgi-fr source : Direction Générale des Impôts - Cadastre. Mise à jour : 2011,,,,yes,,,public_transport,rer,,8754546,,,fr:Gare d'Arpajon
StopArea:Relation:3322386,48.7131051,2.4027233999999997,Athis-Mons,,,,,,,,,,,C,,Athis-Mons,,,,,,,,,,,,Transilien,,,,,,,,SNCF,,stop_area,,,,,,,87545251,,,station,,,,,yes,,,public_transport,,,8754525,,,
StopArea:Relation:3322387,48.8708161,2.2749183,Avenue Foch,,,,,,,,,,,C,,Avenue Foch,,,,,,,,,,,,Transilien,,,,,,,,SNCF,,stop_area,,,,,,,87381038,,,station,,,,,yes,,,public_transport,,,8738103,,,
StopArea:Relation:3322388,48.8280428,2.3795053,Bibliothèque François Mitterrand,,,,,,,,,,RER C,C,,Bibliothèque François Mitterrand,,,,,,,,,,,,Transilien,,,,,,,,SNCF,,stop_area,,,,,,,87328328,,,station,,,,,yes,,,public_transport,,,8732832,,,
StopArea:Relation:3322389,48.7514123,2.2152965,Bièvres,,,,,,,,,,,C,,Bièvres,,,,,,,,,,,,Transilien,,,,,,,,SNCF,,stop_area,,,,,,,87393546,,,station,,,,,yes,,,public_transport,,,8739354,,,
StopArea:Relation:3322390,48.8578135,2.2739656,Boulainvilliers,,,,,,,,,,,C,,Boulainvilliers,,,,,,,,,,,,Transilien,,,,,,,,SNCF,,stop_area,,,,,,,87543181,,,station,,,,,yes,,,public_transport,,,8754318,,,
StopArea:Relation:3322391,48.533316,2.290689,Bouray,,,,,,,,,,,C,,Bouray,,,,,,,,,,,,Transilien,,,,,,,,SNCF,,stop_area,,,,,,,87545178,,,station,,,,,yes,,,public_transport,,,8754517,,,
StopArea:Relation:3322392,48.605906399999995,2.3002856,Brétigny sur Orge,,,,,,,,,,,C,,Brétigny sur Orge,,,,,,,,,,,,Transilien,,,,,,,,SNCF,,stop_area,,,,,,,87545194,,,station,,,,,yes,,,public_transport,,,8754519,,,
StopArea:Relation:3322410,48.5645094,2.1707596,Breuillet Village,,,,,,,,,,,C,,Breuillet Village,,,,,,,,,,,,Transilien,,,,,,,,SNCF,,stop_area,,,,,,,87545491,,,station,,,,,yes,,,public_transport,,,8754549,,,
StopArea:Relation:3322411,48.985078599999994,2.2568902,Cernay,,,,,,,,,,,C,,Cernay,,,,,,,,,,,,Transilien,,,,,,,,SNCF,,stop_area,,,,,,,87276063,,,station,,,,,yes,,,public_transport,,,8727606,,,
StopArea:Relation:3322412,48.5144611,2.2163074,Chamarande,,,,,,,,,,,C,,Chamarande,,,,,,,,,,,,Transilien,,,,,,,,SNCF,,stop_area,,,,,,,87545152,,,station,,,,,yes,,,public_transport,,,8754515,,,
StopArea:Relation:3322413,48.7992365,2.1844661999999997,Chaville Vélizy,,,,,,,,,,,C,,Chaville Vélizy,,,,,,,,,,,,Transilien,,,,,,,,SNCF,,stop_area,,,,,,,87393173,,,station,,,,,yes,,,public_transport,,,8739317,,,
StopArea:Relation:3322414,48.7478476,2.3127594,Chemin d'Antony,,,,,,,,,,,C,,Chemin d'Antony,,,,,,,,,,,,Transilien,,,,,,,,SNCF,,stop_area,,,,,,,87546317,,,station,,,,,yes,,,public_transport,,,8754631,,,
StopArea:Relation:3322415,48.7005002,2.3082244,Chilly-Mazarin,,,,,,,,,,,C,,Chilly-Mazarin,,,,,,,,,,,,Transilien,,,,,,,,SNCF,,stop_area,,,,,,,87393637,,,station,,,,,yes,,,public_transport,,,8739363,,,
StopArea:Relation:3322416,48.577362799999996,2.1917947,Breuillet - Bruyères le Châtel,,,,,,,,,,,C,,Breuillet - Bruyères le Châtel,,,,,,,,,,,,Transilien,,,,,,,,SNCF,,stop_area,,,,,,,87545483,,,station,,,,,yes,,,public_transport,,,8754548,,,
StopArea:Relation:3322438,48.7645276,2.4108335999999997,Choisy le Roi,,,,,,,,,,,C,,Choisy le Roi,,,,,,,,,,,,Transilien,,,,,,,,SNCF,,stop_area,,,,,,41313;411261,87545285,,,station,,,,,yes,,,public_transport,,,8754528,,,
StopArea:Relation:3322448,48.5354041,1.9953840999999999,Dourdan la Forêt,,,,,,,,,,,C,,Dourdan la Forêt,,,,,,,,,,,,Transilien,,,,,,,,SNCF,,stop_area,,,,,,,87540179,,,station,,,,,yes,,,public_transport,,,8754017,,,
StopArea:Relation:3322449,48.5334722,2.0099847,Dourdan,,,,,,87545525,,,,,C,,Dourdan,,,,,,,,,,,,Transilien,,,,,,,,SNCF,,stop_area,,,,,,,87545525,,,station,,,,,yes,,,public_transport,,,8754552,,,
StopArea:Relation:3322469,48.582538899999996,2.2225717,Égly,,,,,,,,,,,C,,Égly,,,,,,,,,,,,Transilien,,,,,,,,SNCF,,stop_area,,,,,,,87545475,,,station,,,,,yes,,,public_transport,,,8754547,,,
StopArea:Relation:3322470,48.669370199999996,2.3318057999999997,Epinay sur Orge,,,,,,,,,,,C,,Epinay sur Orge,,,,,,,,,,,,Transilien,,,,,,,,SNCF,,stop_area,,,,,,,87545228,,,station,,,,,yes,,,public_transport,,,8754522,,,
StopArea:Relation:3322471,48.9542049,2.3024591,Épinay-sur-Seine,,,,,,,,,,,C,,Épinay-sur-Seine,,,,,,,,,,,,Transilien,,,,,,,,SNCF,,stop_area,,,,,,,87271148,,,station,,,,,yes,,,public_transport,,,8727114,,,
StopArea:Relation:3322472,48.9808641,2.2718483,Ermont Eaubonne,,,,,,,,,,,C,,Ermont Eaubonne,,,,,,,,,,,,Transilien,,,,,,,,SNCF,,stop_area,,,,,,,87276055,,,station,,,,,yes,,,public_transport,,,8727605,,,
StopArea:Relation:3322473,48.4365798,2.1593733999999998,Étampes,,,,,,,,,,,C,,Étampes,,,,,,,,,,,,Transilien,,,,,,,,SNCF,,stop_area,,,,,,,87545137,,,station,,,,,yes,,,public_transport,,,8754513,,,
StopArea:Relation:3322474,48.4936167,2.1943319999999997,Etréchy,,,,,,,,,,,C,,Etréchy,,,,,,,,,,,,Transilien,,,,,,,,SNCF,,stop_area,,,,,,,87545145,,,station,,,,,yes,,,public_transport,,,8754514,,,
StopArea:Relation:3322475,48.993371599999996,2.235352,Franconville - Le Plessis-Bouchard,,,,,,,,,,,C;H,,Franconville - Le Plessis-Bouchard,,,,,,,,,,,,Transilien,,,,,,,,SNCF,,stop_area,,,,,,,87276071,,,station,,,,,yes,,,public_transport,,,8727607,,,
StopArea:Relation:3322476,48.9331982,2.3059537999999997,Gennevilliers,,,,,,,,,,,C,,Gennevilliers,,,,,,,,,,,,Transilien,,,,,,,,SNCF,,stop_area,,,,,,,87271205,,,station,,,,,yes,,,public_transport,,,8727120,,,
StopArea:Relation:3322477,48.685103,2.317081,Gravigny Balizy,,,,,,,,,,,C,,Gravigny Balizy,,,,,,,,,,,,Transilien,,,,,,,,SNCF,,stop_area,,,,,,,87393645,,,station,,,,,yes,,,public_transport,,,8739364,,,
StopArea:Relation:3322481,48.739741599999995,2.2311669999999997,Igny,,,,,,,,,,,C,,Igny,,,,,,,,,,,,Transilien,,,,,,,,SNCF,,stop_area,,,,,,,87393561,,,station,,,,,yes,,,public_transport,,,8739356,,,
StopArea:Relation:3322487,48.8202019,2.2594119999999998,Issy,,,,,,,,,,,C,,Issy,,,,,,,,,,,,Transilien,,,,,,,,SNCF,,stop_area,,,,,,,87393074,,,station,,,,,yes,,,public_transport,,,8739307,,,
StopArea:Relation:3322498,48.8144235,2.3906636,Ivry-sur-Seine,,,,,,,,,,,C,,Ivry-sur-Seine,,,,,,,,,,,,Transilien,,,,,,,,SNCF,,stop_area,,,,,,,87545301,,,station,,,,,yes,,,public_transport,,,8754530,,,
StopArea:Relation:3322499,48.764757499999995,2.1635314,Jouy en Josas,,,,,,,,,,,C,,Jouy en Josas,,,,,,,,,,,,Transilien,,,,,,,,SNCF,,stop_area,,,,,,,87393512,,,station,,,,,yes,,,public_transport,,,8739351,,,
StopArea:Relation:3322506,48.6896424,2.3814794,Juvisy sur Orge,,,,,,,,,,,C;D,,Juvisy sur Orge,,,,,,,,,,,,Transilien,,,,,,,,SNCF,,stop_area,,,,,,,87545244,,,station,,,,,yes,,,public_transport,,,8754524,,,
StopArea:Relation:3322507,48.592807199999996,2.2677758999999997,La Norville - St Germain les Arpajon,,,,,,,,,,,C,,La Norville - St Germain les Arpajon,,,,,,,,,,,,Transilien,,,,,,,,SNCF,,stop_area,,,,,,,87545459,,,station,,,,,yes,,,public_transport,,,8754545,,,
StopArea:Relation:3322508,48.5207135,2.2560455,Lardy,,,,,,,,,,,C,,Lardy,,,,,,,,,,,,Transilien,,,,,,,,SNCF,,stop_area,,,,,,,87545160,,,station,,,,,yes,,,public_transport,,,8754516,,,
StopArea:Relation:3322509,48.7829939,2.408722,Les Ardoines,,,,,,,,,,,C,,Les Ardoines,,,,,,,,,,,,Transilien,,,,,,,,SNCF,,stop_area,,,,,,,87492108,,,station,,,,,yes,,,public_transport,,,8749210,,,
StopArea:Relation:3322513,48.920945599999996,2.3138075,Les Grésillons,,,,,,,,,,,C,,Les Grésillons,,,,,,,,,,,,Transilien,,,,,,,,SNCF,,stop_area,,,,,,,87272146,,,station,,,,,yes,,,public_transport,,,8727214,,,
StopArea:Relation:3322535,48.702116,2.2943903999999997,Longjumeau,,,,,,,,,,,C,,Longjumeau,,,,,,,,,,,,Transilien,,,,,,,,SNCF,,stop_area,,,,,,,87393611,,,station,,,,,yes,,,public_transport,,,8739361,,,
StopArea:Relation:3322536,48.564897699999996,2.2901097999999998,Marolles en Hurepoix,,,,,,,,,,,C,,Marolles en Hurepoix,,,,,,,,,,,,Transilien,,,,,,,,SNCF,,stop_area,,,,,,,87545186,,,station,,,,,yes,,,public_transport,,,8754518,,,
StopArea:Relation:3322552,48.726307899999995,2.2577510999999997,Massy Palaiseau,,,,,,,,,,,B;C,,Massy Palaiseau,,,,,,,,,,,,Transilien,,,,,,,,SNCF,,stop_area,,,,,,,87393579,,,station,,,,,yes,,,public_transport,,,8739357,,,
StopArea:Relation:3322584,48.7341471,2.2736073,Massy Verrières,,,,,,,,,,,B;C,,Massy Verrières,,,,,,,,,,,,Transilien,,,,,,,,SNCF,,stop_area,,,,,,,87383281,,,station,,,,,yes,,,public_transport,,,8738328,,,
StopArea:Relation:3322585,48.807564799999994,2.2415287,Meudon Val Fleury,,,,,,,,,,,C,,Meudon Val Fleury,,,,,,,,,,,,Transilien,,,,,,,,SNCF,,stop_area,,,,,,,87393082,,,station,,,,,yes,,,public_transport,,,8739308,,,
StopArea:Relation:3322586,49.0070627,2.198114,Montigny - Beauchamp,,,,,Montigny-lès-Cormeilles - Beauchamp,,,,,,C;H,,Montigny - Beauchamp,,,,,,,,,,,,Transilien,,,,,,,,SNCF,,stop_area,,,,,,,87276089,,,station,,,,,yes,,,public_transport,,,8727608,,,
StopArea:Relation:3322587,48.8779541,2.2845747,Neuilly - Porte Maillot,,,,,Neuilly Porte Maillot - Palais des Congrès,,,,,,C,,Neuilly - Porte Maillot,,,,,,,,,,,,Transilien,,,,,,,,SNCF,,stop_area,,,,,,,87381020,,,station,,,,,yes,,,public_transport,,,8738102,,,
StopArea:Relation:3322589,48.8871423,2.3009349,Péreire Levallois,,,,,,,,,,,C,,Péreire Levallois,,,,,,,,,,,,Transilien,,,,,,,,SNCF,,stop_area,,,,,,,87381012,,,station,,,,,yes,,,public_transport,,,8738101,,Q1961971,
StopArea:Relation:3323179,48.675984299999996,2.3341192,Petit Vaux,,,,,,,,,,,C,,Petit Vaux,,,,,,,,,,,,Transilien,,,,,,,,SNCF,,stop_area,,,,,,,87393652,,,station,,,,,yes,,,public_transport,,,8739365,,,
StopArea:Relation:3323180,49.019365099999995,2.1534513,Pierrelaye,,,,,,,,,,,C;H,,Pierrelaye,,,,,,,,,,,,Transilien,,,,,,,,SNCF,,stop_area,,,,,,,87276097,,,station,,,,,yes,,,public_transport,,,8727609,,,
StopArea:Relation:3323188,49.0468991,2.0958485,Pontoise,,,,,,,,,,,C;H:J,,Pontoise,,,,,,,,,,,,Transilien,,,,,,,,SNCF,,stop_area,,,,,,,87276139,,,station,,,,,yes,,,public_transport,,,8727613,,,
StopArea:Relation:3323218,48.796498799999995,2.151411,Porchefontaine,,,,,,,,,,,C,,Porchefontaine,,,,,,,,,,,,Transilien,,,,,,,,SNCF,,stop_area,,,,,,,87393165,,,station,,,,,yes,,,public_transport,,,8739316,,,
StopArea:Relation:3323220,48.7417154,2.3527815999999997,Rungis la Fraternelle,,,,,,,,,,,C,,Rungis la Fraternelle,,,,,,,,,,,,Transilien,,,,,,,,SNCF,,stop_area,,,,,,,87546291,,,station,,,,,yes,,,public_transport,,,8754629,,,
StopArea:Relation:3323221,48.5512334,2.1254729,Saint-Cheron,,,,,,,,,,,C,,Saint-Cheron,,,,,,,,,,,,Transilien,,,,,,,,SNCF,,stop_area,,,,,,,87545509,,,station,,,,,yes,,,public_transport,,,8754550,,,
StopArea:Relation:3323222,48.7986456,2.0737232999999997,Saint-Cyr,,,,,,,,,,,C;N;U,,Saint-Cyr,,,,,,,,,,,,Transilien,,,,,,,,SNCF,,stop_area,,,,,,,87393223,,,station,,,,,yes,,,public_transport,,,8739322,,,
StopArea:Relation:3323223,48.96385,2.285292,Saint-Gratien,,,,,,,,,,,C,,Saint-Gratien,,,,,,,,,,,,Transilien,,,,,,,,SNCF,,stop_area,,,,,,,87276170,,,station,,,,,yes,,,public_transport,,,8727617,,,
StopArea:Relation:3323224,48.427741499999996,2.1453786999999997,Saint-Martin d'Etampes,,,,,,,,,,,C,,Saint-Martin d'Etampes,,,,,,,,,,,,Transilien,,,,,,,,SNCF,,stop_area,,,,,,,87545350,,,station,,,,,yes,,,public_transport,,,8754535,,,
StopArea:Relation:3323225,48.635908,2.307001,Saint-Michel sur Orge,,,,,,,,,,,C,,Saint-Michel sur Orge,,,,,,,,,,,,Transilien,,,,,,,,SNCF,,stop_area,,,,,,,87545202,,,station,,,,,yes,,,public_transport,,,8754520,,,
StopArea:Relation:3323226,48.653164499999995,2.3132536999999997,Sainte-Geneviève-des-Bois,,,,,,,,,,,C,,Sainte-Geneviève-des-Bois,,,,,,,,,,,,Transilien,,,,,,,,SNCF,,stop_area,,,,,,,87545210,,,station,,,,,yes,,,public_transport,,,8754521,,,
StopArea:Relation:3323258,49.0339941,2.1283890999999997,Saint-Ouen l'Aumône Liesse,,,,,,,,,,,C;H,,Saint-Ouen l'Aumône Liesse,,,,,,,,,,,,Transilien,,,,,,,,SNCF,,stop_area,,,,,,,87337980,,,station,,,,,yes,,,public_transport,,,8733798,,,
StopArea:Relation:3323259,49.045314,2.1059989999999997,Saint-Ouen l'Aumône,,,,,,,,,,,C;H,,Saint-Ouen l'Aumône,,,,,,,,,,,,Transilien,,,,,,,,SNCF,,stop_area,,,,,,,87276105,,,station,,,,,yes,,,public_transport,,,8727610,,,
StopArea:Relation:3323260,48.9054534,2.3223518999999997,Saint-Ouen,,,,,,,,,,,C,,Saint-Ouen,,,,,,,,,,,,Transilien,,,,,,,,SNCF,,stop_area,,,,,,,87271247,,,station,,,,,yes,,,public_transport,,,8727124,,,
StopArea:Relation:3323261,48.7869208,2.0446977,Saint-Quentin en Yvelines,,,,,,,,,,,C;N;U,,Saint-Quentin en Yvelines,,,,,,,,,,,,Transilien,,,,,,,,SNCF,,stop_area,,,,,,,87393843,,,station,,,,,yes,,,public_transport,,,8739384,,,
StopArea:Relation:3323262,48.676171,2.3517482999999997,Savigny sur Orge,,,,,,,,,,,C,,Savigny sur Orge,,,,,,,,,,,,Transilien,,,,,,,,SNCF,,stop_area,,,,,,,87545236,,,station,,,,,yes,,,public_transport,,,8754523,,,
StopArea:Relation:3323263,48.5356047,2.0690709,Sermaise,,,,,,,,,,,C,,Sermaise,,,,,,,,,,,,Transilien,,,,,,,,SNCF,,stop_area,,,,,,,87545517,,,station,,,,,yes,,,public_transport,,,8754551,,,
StopArea:Relation:3323264,48.759484199999996,2.192465,Vauboyen,,,,,,,,,,,C,,Vauboyen,,,,,,,,,,,,Transilien,,,,,,,,SNCF,,stop_area,,,,,,,87393538,,,station,,,,,yes,,,public_transport,,,8739353,,,
StopArea:Relation:3323282,48.7402241,2.4263656,Villeneuve le Roi,,,,,,,,,,,C,,Villeneuve le Roi,,,,,,,,,,,,Transilien,,,,,,,,SNCF,,stop_area,,,,,,,87545277,,,station,,,,,yes,,,public_transport,,,8754527,,,
StopArea:Relation:3323283,48.800655899999995,2.1714029,Viroflay Rive Gauche,,,,,,,,,,,C;N,,Viroflay Rive Gauche,,,,,,,,,,,,Transilien,,,,,,,,SNCF,,stop_area,,,,,,,87393215,,,station,,,,,yes,,,public_transport,,,8739321,,,
StopArea:Relation:3323284,48.798835999999994,2.4038445,Vitry sur Seine,,,,,,,,,,,C,,Vitry sur Seine,,,,,,,,,,,,Transilien,,,,,,,,SNCF,,stop_area,,,,,,,87545293,,,station,,,,,yes,,,public_transport,,,8754529,,,
StopArea:Relation:3323308,48.8644427,2.2720973,Avenue Henri-Martin,,,,,,,,,,,C,,Avenue Henri-Martin,,,,,,,,,,,,Transilien,,,,,,,,SNCF,,stop_area,,,,,,,87381046,,,station,,,,,yes,,,public_transport,,,8738104,,,
StopArea:Relation:3323309,48.853083,2.2813678,Avenue du Président Kennedy,,,,,,,,,,,C,,Avenue du Président Kennedy,,,,,,,,,,,,Transilien,,,,,,,,SNCF,,stop_area,,,,,,,87543207,,,station,,,,,yes,,,public_transport,,,8754320,,,
StopArea:Relation:3323339,48.862795899999995,2.3145027,Invalides,,,,,,,,,,,C,,Invalides,,,,,,,,,,,,Transilien,,,,,,,,SNCF,,stop_area,,,,,,,87393033,,,station,,,,,yes,,,public_transport,,,8739303,,,
StopArea:Relation:3323360,48.7718942,2.1473809999999998,Petit Jouy les Loges,,,,,,,,,,,C,,Petit Jouy les Loges,,,,,,,,,,,,Transilien,,,,,,,,SNCF,,stop_area,,,,,,,87393504,,,station,,,,,yes,,,public_transport,,,8739350,,,
StopArea:Relation:3326747,48.577632799999996,2.1916873,Breuillet - Bruyères-le-Châtel,,,,,,,,,,,,,Breuillet - Bruyères-le-Châtel,,,,,,,,,,,,,,,,,,,,,,stop_area,,,,,,,,,,,,,,,,,,public_transport,,,,,,
StopArea:Relation:3331391,48.8884058,2.2495446,Esplanade de La Défense,,,,,,,,,,,,,Esplanade de La Défense,,,,,,,,,,,,,,,,,,,,RATP,,stop_area,,,,,,,,,,,,,,,,,,public_transport,,,,,,
StopArea:Relation:3407010,48.8813779,2.3154062,Villiers,,,,,,,,,,,,,Villiers,,,,,,,,,,,,,,,,,,,,,,stop_area,,,,,,,,,,,,,,,,,,public_transport,,,,,,
StopArea:Relation:3592587,48.667167899999995,2.2547287,Ruisseau blanc,,,,,,,,,,,,,Ruisseau blanc,,,,,,,,,,,,,,,,,,,,,,stop_area,,,,,,,,,,,,,,,,,,public_transport,,,,,,
StopArea:Relation:3662458,48.872606999999995,2.408499,Adrienne Bolland,,,,,,,,,,,,,Adrienne Bolland,,,,,,,,,,,,,,,,,,,,RATP,,stop_area,,,,,,,,,,,,,,,,,,public_transport,,,,,,
StopArea:Relation:3662459,48.8434749,2.4101122,Alexandra David-Néel,,,,,,,,,,,,,Alexandra David-Néel,,,,,,,,,,,,,,,,,,,,RATP,,stop_area,,,,,,,,,,,,,,,,,,public_transport,,,,,,
StopArea:Relation:3662460,48.8254975,2.3808251,Avenue de France,,,,,,,,,,,,,Avenue de France,,,,,,,,,,,,,,,,,,,,RATP,,stop_area,,,,,,,,,,,,,,,,,,public_transport,,,,,,
StopArea:Relation:3662461,48.8303523,2.3931012,Baron Le Roy,,,,,,,,,,,,,Baron Le Roy,,,,,,,,,,,,,,,,,,,,RATP,,stop_area,,,,,,,,,,,,,,,,,,public_transport,,,,,,
StopArea:Relation:3662462,48.828666899999995,2.3008637999999997,Brancion,,,,,,,,,,,,,Brancion,,,,,,,,,,,,,,,,,,,,RATP,,stop_area,,,,,,,,,,,,,,,,,,public_transport,,,,,,
StopArea:Relation:3662463,48.885234499999996,2.3967723999999997,Butte du Chapeau-Rouge,,,,,,,,,,,,,Butte du Chapeau-Rouge,,,,,,,,,,,,,,,,,,,,RATP,,stop_area,,,,,,,,,,,,,,,,,,public_transport,,,,,,
StopArea:Relation:3662464,48.8987245,2.3807939,Canal Saint-Denis,,,,,,,,,,,,,Canal Saint-Denis,,,,,,,,,,,,,,,,,,,,RATP,,stop_area,,,,,,,,,,,,,,,,,,public_transport,,,,,,
StopArea:Relation:3662465,48.820332099999995,2.3386614999999997,Cité Universitaire,,,,,,,,,,,,,Cité Universitaire,,,,,,,,,,,,,,,,,,,,RATP,,stop_area,,,,,,,,,,,,,,,,,,public_transport,,,,,,
StopArea:Relation:3662466,48.8984971,2.3633748999999997,Colette Besson,,,,,,,,,,,,,Colette Besson,,,,,,,,,,,,,,,,,,,,RATP,,stop_area,,,,,,,,,,,,,,,,,,public_transport,,,,,,
StopArea:Relation:3662467,48.8938409,2.3977511,Delphine Seyrig,,,,,,,,,,,,,Delphine Seyrig,,,,,,,,,,,,,,,,,,,,RATP,,stop_area,,,,,,,,,,,,,,,,,,public_transport,,,,,,
StopArea:Relation:3662468,48.8343535,2.2840257,Desnouettes,,,,,,,,,,,,,Desnouettes,,,,,,,,,,,,,,,,,,,,RATP,,stop_area,,,,,,,,,,,,,,,,,,public_transport,,,,,,
StopArea:Relation:3662469,48.825938,2.3133067,Didot,,,,,,,,,,,,,Didot,,,,,,,,,,,,,,,,,,,,RATP,,stop_area,,,,,,,,,,,,,,,,,,public_transport,,,,,,
StopArea:Relation:3662470,48.897430299999996,2.3949916,Ella Fitzgerald - Grands Moulins de Pantin,,,,,,,,,,,,,Ella Fitzgerald - Grands Moulins de Pantin,,,,,,,,,,,,,,,,,,,,RATP,,stop_area,,,,,,,,,,,,,,,,,,public_transport,,,,,,
StopArea:Relation:3662471,48.8298202,2.2956776,Georges Brassens,,,,,,,,,,,,,Georges Brassens,,,,,,,,,,,,,,,,,,,,RATP,,stop_area,,,,,,,,,,,,,,,,,,public_transport,,,,,,
StopArea:Relation:3662472,48.8796423,2.4011677,Hôpital Robert Debré,,,,,,,,,,,,,Hôpital Robert Debré,,,,,,,,,,,,,,,,,,,,RATP,,stop_area,,,,,,,,,,,,,,,,,,public_transport,,,,,,
StopArea:Relation:3662473,48.824703,2.3188779,Jean Moulin,,,,,,,,,,,,,Jean Moulin,,,,,,,,,,,,,,,,,,,,RATP,,stop_area,,,,,,,,,,,,,,,,,,public_transport,,,,,,
StopArea:Relation:3662474,48.8694436,2.3251705,Madeleine (8),,,,,,,,,,,,,Madeleine (8),,,,,,,,,,,,,,,,,,,,RATP,,stop_area,,,,,,,,,,,,,,,,,,public_transport,,,,,,
StopArea:Relation:3662475,48.858899,2.4097071,Marie de Miribel,,,,,,,,,,,,,Marie de Miribel,,,,,,,,,,,,,,,,,,,,RATP,,stop_area,,,,,,,,,,,,,,,,,,public_transport,,,,,,
StopArea:Relation:3662476,48.8242999,2.3773664,Maryse Bastié,,,,,,,,,,,,,Maryse Bastié,,,,,,,,,,,,,,,,,,,,RATP,,stop_area,,,,,,,,,,,,,,,,,,public_transport,,,,,,
StopArea:Relation:3662477,48.8394848,2.4088406,Montempoivre,,,,,,,,,,,,,Montempoivre,,,,,,,,,,,,,,,,,,,,RATP,,stop_area,,,,,,,,,,,,,,,,,,public_transport,,,,,,
StopArea:Relation:3662478,48.8214912,2.3334117,Montsouris,,,,,,,,,,,,,Montsouris,,,,,,,,,,,,,,,,,,,,RATP,,stop_area,,,,,,,,,,,,,,,,,,public_transport,,,,,,
StopArea:Relation:3662479,48.835351499999994,2.4063044,Porte Dorée,,,,,,,,,,,,,Porte Dorée,,,,,,,,,,,,,,,,,,,,RATP,,stop_area,,,,,,,,,,,,,,,,,,public_transport,,,,,,
StopArea:Relation:3662480,48.898588,2.3693231999999997,Porte d'Aubervilliers,,,,,,,,,,,,,Porte d'Aubervilliers,,,,,,,,,,,,,,,,,,,,RATP,,stop_area,,,,,,,,,,,,,,,,,,public_transport,,,,,,
StopArea:Relation:3662481,48.8217602,2.3697258999999997,Porte d'Ivry,,,,,,,,,,,,,Porte d'Ivry,,,,,,,,,,,,,,,,,,,,RATP,,stop_area,,,,,,,,,,,,,,,,,,public_transport,,,,,,
StopArea:Relation:3662482,48.8233981,2.3245635,Porte d'Orléans,,,,,,,,,,,,,Porte d'Orléans,,,,,,,,,,,,,,,,,,,,RATP,,stop_area,,,,,,,,,,,,,,,,,,public_transport,,,,,,
StopArea:Relation:3662483,48.8634463,2.4088311,Porte de Bagnolet,,,,,,,,,,,,,Porte de Bagnolet,,,,,,,,,,,,,,,,,,,,RATP,,stop_area,,,,,,,,,,,,,,,,,,public_transport,,,,,,
StopArea:Relation:3662484,48.831858499999996,2.398142,Porte de Charenton,,,,,,,,,,,,,Porte de Charenton,,,,,,,,,,,,,,,,,,,,RATP,,stop_area,,,,,,,,,,,,,,,,,,public_transport,,,,,,
StopArea:Relation:3662485,48.819792,2.364063,Porte de Choisy,,,,,,,,,,,,,Porte de Choisy,,,,,,,,,,,,,,,,,,,,RATP,,stop_area,,,,,,,,,,,,,,,,,,public_transport,,,,,,
StopArea:Relation:3662486,48.8531911,2.4107640999999997,Porte de Montreuil,,,,,,,,,,,,,Porte de Montreuil,,,,,,,,,,,,,,,,,,,,RATP,,stop_area,,,,,,,,,,,,,,,,,,public_transport,,,,,,
StopArea:Relation:3662487,48.8890047,2.3956842,Porte de Pantin - Parc de la Villette,,,,,,,,,,,,,Porte de Pantin - Parc de la Villette,,,,,,,,,,,,,,,,,,,,RATP,,stop_area,,,,,,,,,,,,,,,,,,public_transport,,,,,,
StopArea:Relation:3662488,48.8274136,2.3066496,Porte de Vanves,,,,,,,,,,,,,Porte de Vanves,,,,,,,,,,,,,,,,,,,,RATP,,stop_area,,,,,,,,,,,,,,,,,,public_transport,,,,,,
StopArea:Relation:3662489,48.8326682,2.2880718,Porte de Versailles,,,,,,,,,,,,,Porte de Versailles,,,,,,,,,,,,,,,,,,,,RATP,,stop_area,,,,,,,,,,,,,,,,,,public_transport,,,,,,
StopArea:Relation:3662490,48.8469432,2.4091644999999997,Porte de Vincennes (T3a),,,,,,,,,,,,,Porte de Vincennes (T3a),,,,,,,,,,,,,,,,,,,,RATP,,stop_area,,,,,,,,,,,,,,,,,,public_transport,,,,,,
StopArea:Relation:3662491,48.847467599999995,2.4092659,Porte de Vincennes (T3b),,,,,,,,,,,,,Porte de Vincennes (T3b),,,,,,,,,,,,,,,,,,,,RATP,,stop_area,,,,,,,,,,,,,,,,,,public_transport,,,,,,
StopArea:Relation:3662492,48.8474411,2.4092962,Porte de Vincennes,,,,,,,,,,,,,Porte de Vincennes,,,,,,,,,,,,,,,,,,,,RATP,,stop_area,,,,,,,,,,,,,,,,,,public_transport,,,,,,
StopArea:Relation:3662493,48.898379399999996,2.3586777,Porte de la Chapelle (T3b),,,,,,,,,,,,,Porte de la Chapelle (T3b),,,,,,,,,,,,,,,,,,,,RATP,,stop_area,,,,,,,,,,,,,,,,,,public_transport,,,,,,
StopArea:Relation:3662494,48.8974336,2.3860088,Porte de la Villette - Cité des Sciences et de l'Industrie,,,,,,,,,,,,,Porte de la Villette - Cité des Sciences et de l'Industrie,,,,,,,,,,,,,,,,,,,,RATP,,stop_area,,,,,,,,,,,,,,,,,,public_transport,,,,,,
StopArea:Relation:3662495,48.876804199999995,2.4068536,Porte des Lilas,,,,,,,,,,,,,Porte des Lilas,,,,,,,,,,,,,,,,,,,,RATP,,stop_area,,,,,,,,,,,,,,,,,,public_transport,,,,,,
StopArea:Relation:3662496,48.820662399999996,2.3498987,Poterne des Peupliers,,,,,,,,,,,,,Poterne des Peupliers,,,,,,,,,,,,,,,,,,,,RATP,,stop_area,,,,,,,,,,,,,,,,,,public_transport,,,,,,
StopArea:Relation:3662497,48.896546099999995,2.3742696,Rosa Parks,,,,,,,,,,,E,,Rosa Parks,,,,,,,,,,,,Transilien,,,,,,,,SNCF,,stop_area,,,,,,,87654798,,,station,,,,,,,,public_transport,,,8765479,,Q3095535,
StopArea:Relation:3662498,48.8194847,2.3457695,Stade Charléty,,,,,,,,,,,,,Stade Charléty,,,,,,,,,,,,,,,,,,,,RATP,,stop_area,,,,,,,,,,,,,,,,,,public_transport,,,,,,
StopArea:Relation:3662499,48.867693499999994,2.4090515,Séverine,,,,,,,,,,,,,Séverine,,,,,,,,,,,,,,,,,,,,RATP,,stop_area,,,,,,,,,,,,,,,,,,public_transport,,,,,,
StopArea:Relation:3766749,48.8903926,2.3762624,Crimée,,,,,,,,,,,,,Crimée,,,,,,,,,,,,Bus,,,,,,,,RATP,,stop_area,,,,,,,,,,,,,,,,,,public_transport,,,,,,
StopArea:Relation:3781692,48.571033899999996,2.433119,Mennecy,,,,,,,,,,,D,,Mennecy,,,,,,,,,,,,Transilien,,,,,,,,SNCF,,stop_area,,,,,,,87681411,,,station,extrapolation,,,,yes,,,public_transport,,,8768141,,,
StopArea:Relation:3800370,48.906681299999995,2.443847,Hôtel de Ville de Bobigny,,,,,,,,,,,,,Hôtel de Ville de Bobigny,,,,,,,,,,,,Bus,,,,,,,,RATP,,stop_area,,,,,,,,,,,,,,,,,,public_transport,,,,,,
StopArea:Relation:3804943,48.900875799999994,2.3353169,Gérard de Nerval,,,,,,,,,,,,,Gérard de Nerval,,,,,,,,,,,,Bus,,,,,,,,RATP,,stop_area,,,,,,,,,,,,,,,,,,public_transport,,,,,,
StopArea:Relation:3804944,48.8983232,2.3370881999999997,Porte de Montmartre - Boulevard Ney,,,,,,,,,,,,,Porte de Montmartre - Boulevard Ney,,,,,,,,,,,,,,,,,,,,RATP,,stop_area,,,,,,,,,,,,,,,,,,public_transport,,,,,,
StopArea:Relation:3804945,48.900481799999994,2.3349547,Porte de Montmartre,,,,,,,,,,,,,Porte de Montmartre,,,,,,,,,,,,Bus,,,,,,,,RATP,,stop_area,,,,,,,,,,,,,,,,,,public_transport,,,,,,
StopArea:Relation:3804946,48.8993974,2.3361315,René Binet,,,,,,,,,,,,,René Binet,,,,,,,,,,,,,,,,,,,,RATP,,stop_area,,,,,,,,,,,,,,,,,,public_transport,,,,,,
StopArea:Relation:3878250,48.592737799999995,2.4614561,Villabé,,,,,,,,,,,D,,Villabé,,,,,,,,,,,,Transilien,,,,,,,,SNCF,,stop_area,,,,,,,87681619,,,station,,,,,yes,,,public_transport,,,8768161,,,
StopArea:Relation:3893875,48.9943229,2.4157685,Villiers-le-Bel - Gonesse - Arnouville,,,,,,,,,,,D,,Villiers-le-Bel - Gonesse - Arnouville,,,,,,,,,,,,Transilien,,,,,,,,SNCF,,stop_area,,,,,,,87276220,,,station,,,,,yes,,,public_transport,,,8727622,,,
StopArea:Relation:3897237,49.0500908,2.5026983,Louvres,,,,,,,,,,,D,,Louvres,,,,,,,,,,,,Transilien,,,,,,,,SNCF,,stop_area,,,,,,,87276253,,,station,,,,,yes,,,public_transport,,,8727625,,,
StopArea:Relation:3904103,48.8025544,2.4265814,Maisons-Alfort - Alfortville,,,,,,,,,,,D,,Maisons-Alfort - Alfortville,,,,,,,,,,,,Transilien,,,,,,,,SNCF,,stop_area,,,,,,,87681155,,,station,,,,,yes,,,public_transport,,,8768115,,,
StopArea:Relation:3904115,48.6232324,2.4507665,Le Bras de Fer,,,,,,,,,,,D,,Le Bras de Fer,,,,,,,,,,,,Transilien,,,,,,,,SNCF,,stop_area,,,,,,,87681395,,,station,,,,,yes,,,public_transport,,,8768139,,,
StopArea:Relation:3905691,48.6364613,2.4077840999999998,Orangis Bois de l'Épine,,,,,Ris-Orangis Bois de l'Épine,,,,,,D,,Orangis Bois de l'Épine,,,,,,,,,,,,Transilien,,,,,,,,SNCF,,stop_area,,,,,,,87681346,,,station,,,,,yes,,,public_transport,,,8768134,,,
StopArea:Relation:3905715,48.634543,2.4523498,Evry - Val de Seine,,,,,,,,,,,D,,Evry - Val de Seine,,,,,,,,,,,,Transilien,,,,,,,,SNCF,,stop_area,,,,,,,87681361,,,station,,,,,yes,,,public_transport,,,8768136,,,
StopArea:Relation:3905731,48.653626599999996,2.3957387,Grigny Centre,,,,,,,,,,,D,,Grigny Centre,,,,,,,,,,,,Transilien,,,,,,,,SNCF,,stop_area,,,,,,,87681379,,,station,,,,,yes,,,public_transport,,,8768137,,,
StopArea:Relation:3905739,48.625549199999995,2.4285409,Évry - Courcouronnes,,,,,,,,,,,D,,Évry - Courcouronnes,,,,,,,,,,,,Transilien,,,,,,,,SNCF,,stop_area,,,,,,,87681387,,,station,,,,,yes,,,public_transport,,,8768138,,,
StopArea:Relation:3905804,48.8963179,2.4602852,Noisy-le-Sec,,,,,,,,,,,E,,Noisy-le-Sec,,,,,,,,,,,,Transilien,,,,,,,,SNCF,,stop_area,,,,,,,87113217,,,station,,,,,yes,,,public_transport,,,8711321,,,
StopArea:Relation:3919971,49.0051245,2.5705202,Aéroport Charles de Gaulle 2 TGV,,,,,,,,,,,B,,Aéroport Charles de Gaulle 2 TGV,,,,,,,,,,,,Transilien,,,,,,,,SNCF,,stop_area,,,,,,,87001479,,,station,,,,,yes,,,public_transport,,,8700147,,,
StopArea:Relation:3919991,48.8835394,2.8535942999999997,Couilly - Saint-Germain - Quincy,,,,,,,,,,,P,,Couilly - Saint-Germain - Quincy,,,,,,,,,,,,Transilien,,,,,,,,SNCF,,stop_area,,,,,,,87116731,,,station,,,,,yes,,,public_transport,,,8711673,,,
StopArea:Relation:3920009,48.863254399999995,2.8830418,Villiers-sur-Morin - Montbarbin,,,,,Villiers Montarbin,,,,,,P,,Villiers-sur-Morin - Montbarbin,,,,,,,,,,,,Transilien,,,,,,,,SNCF,,stop_area,,,,,,,87116749,,,station,,,,,yes,,,public_transport,,,8711674,,,
StopArea:Relation:3920034,48.9715828,2.2635682,Sannois,,,,,,,,,,,J,,Sannois,,,,,,,,,,,,Transilien,,,,,,,,SNCF,,stop_area,,,,,,,87276188,,,station,,,,,yes,,,public_transport,,,8727618,,,
StopArea:Relation:3920063,49.136119,2.2430624999999997,Champagne sur Oise,,,,,,,,,,,H,,Champagne sur Oise,,,,,,,,,,,,Transilien,,,,,,,,SNCF,,stop_area,,,,,,,87276519,,,station,,,,,yes,,,public_transport,,,8727651,,,
StopArea:Relation:3920121,48.8748198,2.3268562999999998,Haussmann - Saint-Lazare,,,,,,,,,,,E,,Haussmann - Saint-Lazare,,,,,,,,,,,,Transilien,,,,,,,,SNCF,,stop_area,,,,,,,87281899,,,station,,,,,yes,,,public_transport,,,8728189,,,
StopArea:Relation:3920134,48.7551753,1.9435319,La Verrière,,,,,,,,,,,N;U,,La Verrière,,,,,,,,,,,,Transilien,,,,,,,,SNCF,,stop_area,,,,,,,87393256,,,station,,,,,yes,,,public_transport,,,8739325,,,
StopArea:Relation:3920179,48.370847,2.3871153,Bruno Gironville,,,,,,,,,,,D,,Bruno Gironville,,,,,,,,,,,,Transilien,,,,,,,,SNCF,,stop_area,,,,,,,87681510,,,station,,,,,yes,,,public_transport,,,8768151,,,
StopArea:Relation:3920194,48.3400226,2.3780582,Boigneville,,,,,,,,,,,D,,Boigneville,,,,,,,,,,,,Transilien,,,,,,,,SNCF,,stop_area,,,,,,,87684407,,,station,,,,,yes,,,public_transport,,,8768440,,,
StopArea:Relation:3920217,48.5735643,2.4795726,Le Plessis-Chénet,,,,,,,,,,,D,,Le Plessis-Chénet,,,,,,,,,,,,Transilien,,,,,,,,SNCF,,stop_area,,,,,,,87681627,,,station,,,,,yes,,,public_transport,,,8768162,,,
StopArea:Relation:3920228,48.7082768,2.4144646,Vigneux sur Seine,,,,,,,,,,,D,,Vigneux sur Seine,,,,,,,,,,,,Transilien,,,,,,,,SNCF,,stop_area,,,,,,,87681304,,,station,,,,,yes,,,public_transport,,,8768130,,,
StopArea:Relation:3920475,49.036575299999996,2.0797442,Cergy Préfecture,,,,,,,,,,,A;L,,Cergy Préfecture,,,,,,,,,,,,Transilien,,,,,,,,SNCF,,stop_area,,,,,,,87381905,,,station,,,,,yes,,,public_transport,,,8738190,,,
StopArea:Relation:3920534,49.0793137,2.3505797,Villaines-sous-Bois,,,,,Villaines,,,,,,H,,Villaines-sous-Bois,,,,,,,,,,,,Transilien,,,,,,,,SNCF,,stop_area,,,,,,,87272021,,,station,,,,,yes,,,public_transport,,,8727202,,,
StopArea:Relation:3920548,48.5287106,3.2547262,Sainte-Colombe Septveilles,,,,,,,,,,,P,,Sainte-Colombe Septveilles,,,,,,,,,,,,Transilien,,,,,,,,SNCF,,stop_area,,,,,,,87116178,,,station,,,,,yes,,,public_transport,,,8711617,,,
StopArea:Relation:3920576,48.8980216,2.3999905,Pantin,,,,,,,,,,,E,,Pantin,,,,,,,,,,,,Transilien,,,,,,,,SNCF,,stop_area,,,,,,,87113209,,,station,,,,,yes,,,public_transport,,,8711320,,,
StopArea:Relation:3920637,49.063008599999996,2.0576915,Osny,,,,,,,,,,,J,,Osny,,,,,,,,,,,,Transilien,,,,,,,,SNCF,,stop_area,,,,,,,87381145,,,station,,,,,yes,,,public_transport,,,8738114,,,
StopArea:Relation:3920641,48.8834223,2.2337075,Puteaux,,,,,,,,,,,L;U;T2,,Puteaux,,,,,,,,,,,,Transilien,,,,,,,,SNCF,,stop_area,2,,,,,,87382382,,,station,,,,,yes,,,public_transport,,,8738238,,,
StopArea:Relation:3920644,48.8316272,1.9436748,Plaisir Grignon,,,,,,,,,,,N,,Plaisir Grignon,,,,,,,,,,,,Transilien,,,,,,,,SNCF,,stop_area,,,,,,,87393421,,,station,,,,,yes,,,public_transport,,,8739342,,,
StopArea:Relation:3920651,48.529011399999995,2.6546290999999997,Melun,,,,,,,,,,,D;R,,Melun,,,,,,,,,,,,Transilien,,,,,,,,SNCF,,stop_area,,,,,,,87682005,,,station,,,,,yes,,,public_transport,,,8768200,,,
StopArea:Relation:3920685,48.8932499,2.4872277,Remise à Jorelle,,,,,Bondy Remise à Jorelle,,,,,,T4,,Remise à Jorelle,,,,,,,,,,,,Transilien,,,,,,,,SNCF,,stop_area,,,,,,,87988709,,,station,,,,,,yes,,public_transport,,,8798870,,,
StopArea:Relation:3920697,48.4348564,2.3762290999999998,Boutigny,,,,,,,,,,,D,,Boutigny,,,,,,,,,,,,Transilien,,,,,,,,SNCF,,stop_area,,,,,,,87681478,,,station,,,,,yes,,,public_transport,,,8768147,,,
StopArea:Relation:3920811,48.814938399999996,2.2409339,Meudon,,,,,,,,,,,N,,Meudon,,,,,,,,,,,,Transilien,,,,,,,,SNCF,,stop_area,,,,,,,87393108,,,station,,,,,yes,,,public_transport,,,8739310,,,
StopArea:Relation:3920884,48.4436343,2.7610183,Héricy,,,,,,,,,,,R,,Héricy,,,,,,,,,,,,Transilien,,,,,,,,SNCF,,stop_area,,,,,,,87682435,,,station,,,,,yes,,,public_transport,,,8768243,,,
StopArea:Relation:3920919,48.893612999999995,1.8714229999999998,Mareil-sur-Mauldre,,,,,,,,,,,N,,Mareil-sur-Mauldre,,,,,,,,,,,,Transilien,,,,,,,,SNCF,,stop_area,,,,,,,87381715,,,station,,,,,yes,,,public_transport,,,8738171,,,
StopArea:Relation:3920942,49.0916952,2.2021547999999997,Valmondois,,,,,,,,,,,H,,Valmondois,,,,,,,,,,,,Transilien,,,,,,,,SNCF,,stop_area,,,,,,,87276535,,,station,,,,,yes,,,public_transport,,,8727653,,,
StopArea:Relation:3922442,48.1821895,2.7339936,Souppes-sur-Loing - Château-Landon,,,,,,,,,,,R,,Souppes-sur-Loing - Château-Landon,,,,,,,,,,,,Transilien,,,,,,,,SNCF,,stop_area,,,,,,,87684217,,Souppes - Château-Landon,station,,,,,yes,,,public_transport,,,8768421,,,
StopArea:Relation:3924450,48.2305974,2.7034007,Bagneaux-sur-Loing,,,,,,,,,,,R,,Bagneaux-sur-Loing,,,,,,,,,,,,Transilien,,,,,,,,SNCF,,stop_area,,,,,,,87684191,,,station,,,,,yes,,,public_transport,,,8768419,,,
StopArea:Relation:3924506,48.531923199999994,2.3714333,Ballancourt-sur-Essonne,,,,,,,,,,,D,,Ballancourt-sur-Essonne,,,,,,,,,,,,Transilien,,,,,,,,SNCF,,stop_area,,,,,,,87681437,,,station,,,,,yes,,,public_transport,,,8768143,,,
StopArea:Relation:3924517,48.9801359,2.1802254999999997,La Frette-Montigny,,,,,,,,,,,J,,La Frette-Montigny,,,,,,,,,,,,Transilien,,,,,,,,SNCF,,stop_area,,,,,,,87381871,,,station,,,,,yes,,,public_transport,,,8738187,,,
StopArea:Relation:3952421,48.8235483,2.5801157999999997,Noisy-le-Grand Les Yvris,,,,,Les Yvris - Noisy le Grand,,,,,,E,,Noisy-le-Grand Les Yvris,,,,,,,,,,,,Transilien,,,,,,,,SNCF,,stop_area,,,,,,,87113803,,,station,,,,,yes,,,public_transport,,,8711380,,,
StopArea:Relation:3952430,49.045436699999996,2.3228258999999998,Bouffémont - Moisselles,,,,,,,,,,,H,,Bouffémont - Moisselles,,,,,,,,,,,,Transilien,,,,,,,,SNCF,,stop_area,,,,,,,87276485,,,station,,,,,yes,,,public_transport,,,8727648,,,
StopArea:Relation:3952443,48.9924069,1.8457169999999998,Juziers,,,,,,,,,,,J,,Juziers,,,,,,,,,,,,Transilien,,,,,,,,SNCF,,stop_area,,,,,,,87381558,,,station,,,,,yes,,,public_transport,,,8738155,,,
StopArea:Relation:3952458,48.8058165,2.1679919,Viroflay Rive Droite,,,,,,,,,,,L,,Viroflay Rive Droite,,,,,,,,,,,,Transilien,,,,,,,,SNCF,,stop_area,,,,,,,87382887,,,station,,,,,yes,,,public_transport,,,8738288,,,
StopArea:Relation:3958368,48.877140499999996,2.5531493,Le Chénay - Gagny,,,,,,,,,,,E,,Le Chénay - Gagny,,,,,,,,,,,,Transilien,,,,,,,,SNCF,,stop_area,,,,,,,87113522,,,station,,,,,yes,,,public_transport,,,8711352,,,
StopArea:Relation:3958390,48.8825092,2.4812323999999997,Rosny Bois Perrier,,,,,,,,,,,E,,Rosny Bois Perrier,,,,,,,,,,,,Transilien,,,,,,,,SNCF,,stop_area,,,,,,,87113696,,,station,,,,,yes,,,public_transport,,,8711369,,,
StopArea:Relation:3958403,48.870695999999995,2.4848399999999997,Rosny-sous-Bois,,,,,,,,,,,E;P,,Rosny-sous-Bois,,,,,,,,,,,,Transilien,,,,,,,,SNCF,,stop_area,,,,,,,87113704,,,station,,,,,yes,,,public_transport,,,8711370,,,
StopArea:Relation:3958427,48.8388279,2.4938203,Nogent - Le Perreux,,,,,,,,,,,E,,Nogent - Le Perreux,,,,,,,,,,,,Transilien,,,,,,,,SNCF,,stop_area,,,,,,,87113746,,,station,,,,,yes,,,public_transport,,,8711374,,,
StopArea:Relation:3958472,48.8247929,2.5115518999999997,Les Boullereaux - Champigny,,,,,,,,,,,E,,Les Boullereaux - Champigny,,,,,,,,,,,,Transilien,,,,,,,,SNCF,,stop_area,,,,,,,87113779,,,station,,,,,yes,,,public_transport,,,8711377,,,
StopArea:Relation:3958497,48.8223352,2.5430911,Villiers-sur-Marne - Le Plessis-Trévise,,,,,,,,,,,E,,Villiers-sur-Marne - Le Plessis-Trévise,,,,,,,,,,,,Transilien,,,,,,,,SNCF,,stop_area,,,,,,,87113795,,,station,,,,,yes,,,public_transport,,,8711379,,,
StopArea:Relation:3959844,48.9025323,2.5116848999999997,Les Pavillons-sous-Bois,,,,,,,,,,,T4,,Les Pavillons-sous-Bois,,,,,,,,,,,,Transilien,,,,,,,,SNCF,,stop_area,,,,,,,87113852,,,station,,,,,,yes,,public_transport,,,8711385,,,
StopArea:Relation:3959851,48.8925455,2.5002375999999997,Les Coquetiers,,,,,,,,,,,T4,,Les Coquetiers,,,,,,,,,,,,Transilien,,,,,,,,SNCF,,stop_area,,,,,,,87113845,,,station,,,,,,yes,,public_transport,,,8711384,,,
StopArea:Relation:3959933,48.9081881,2.5169021,Gargan,,,,,,,,,,,T4,,Gargan,,,,,,,,,,,,Transilien,,,,,,,,SNCF,,stop_area,,,,,,,87113860,,,station,,,,,,yes,,public_transport,,,8711386,,,
StopArea:Relation:3959965,48.897132,2.5064295,Allée de la Tour-Rendez-Vous,,,,,,,,,,,T4,,Allée de la Tour-Rendez-Vous,,,,,,,,,,,,Transilien,,,,,,,,SNCF,,stop_area,,,,,,,87113878,,,station,,,,,,yes,,public_transport,,,8711387,,,
StopArea:Relation:3960012,48.9265328,2.5191432,Freinville - Sevran,,,,,,,,,,,T4,,Freinville - Sevran,,,,,,,,,,,,Transilien,,,,,,,,SNCF,,stop_area,,,,,,,87113894,,,station,,,,,,yes,,public_transport,,,8711389,,,
StopArea:Relation:3960057,48.545578299999995,3.2873775999999997,Champbenoist Poigny,,,,,,,,,,,P,,Champbenoist Poigny,,,,,,,,,,,,Transilien,,,,,,,,SNCF,,stop_area,,,,,,,87115873,,,station,,,,,yes,,,public_transport,,,8711587,,,
StopArea:Relation:3972675,48.645509499999996,2.8236518999999998,Verneuil-l'Étang,,,,,,,,,,,P,,Verneuil-l'Étang,,,,,,,,,,,,Transilien,,,,,,,,SNCF,,stop_area,,,,,,,87116079,,,station,,,,,yes,,,public_transport,,,8711607,,,
StopArea:Relation:3972683,48.6136592,2.8889299,Mormant,,,,,,,,,,,P,,Mormant,,,,,,,,,,,,Transilien,,,,,,,,SNCF,,stop_area,,,,,,,87116087,,,station,,,,,yes,,,public_transport,,,8711608,,,
StopArea:Relation:3972714,48.5613983,3.0119529,Nangis,,,,,,,,,,,P,,Nangis,,,,,,,,,,,,Transilien,,,,,,,,SNCF,,stop_area,,,,,,,87116095,,,station,,,,,yes,,,public_transport,,,8711609,,,
StopArea:Relation:3978305,48.2673827,2.6868071,Nemours Saint-Pierre,,,,,Saint-Pierre-lès-Nemours,,,,,,R,,Nemours Saint-Pierre,,,,,,,,,,,,Transilien,,,,,,,,SNCF,,stop_area,,,,,,,87684126,,,station,,,,,yes,,,public_transport,,,8768412,,,
StopArea:Relation:3978451,48.5644815,2.5426954,Saint-Fargeau,,,,,,,,,,,D,,Saint-Fargeau,,,,,,,,,,,,Transilien,,,,,,,,SNCF,,stop_area,,,,,,,87682542,,,station,,,,,yes,,,public_transport,,,8768254,,,
StopArea:Relation:3978476,48.5349552,2.5448331,Ponthierry Pringy,,,,,,,,,,,D,,Ponthierry Pringy,,,,,,,,,,,,Transilien,,,,,,,,SNCF,,stop_area,,,,,,,87682526,,,station,,,,,yes,,,public_transport,,,8768252,,,
StopArea:Relation:3980094,48.5863385,2.4738374,Moulin Galant,,,,,,,,,,,D,,Moulin Galant,,,,,,,,,,,,Transilien,,,,,,,,SNCF,,stop_area,,,,,,,87681403,,,station,,,,,yes,,,public_transport,,,8768140,,,
StopArea:Relation:3980173,48.4851405,2.351273,La Ferté-Alais,,,,,,87681452,,,,,D,,La Ferté-Alais,,,,,,,,,,,,Transilien,,,,,,,,SNCF,,stop_area,,,,,,,87681452,,,station,,,,,yes,,,public_transport,,,8768145,,,
StopArea:Relation:3980240,48.5662106,2.492555,Le Coudray-Montceaux,,,,,,,,,,,D,,Le Coudray-Montceaux,,,,,,,,,,,,Transilien,,,,,,,,SNCF,,stop_area,,,,,,,87681635,,,station,cadastre-dgi-fr source : Direction Générale des Impôts - Cadastre;mise à jour : 2014 + Bing,,,,yes,,,public_transport,,,8768163,,,
StopArea:Relation:3980293,48.7450061,2.4381735,Villeneuve Triage,,,,,,,,,,,D,,Villeneuve Triage,,,,,,,,,,,,Transilien,,,,,,,,SNCF,,stop_area,,,,,,,87681809,,,station,,,,,yes,,,public_transport,,,8768180,,,
StopArea:Relation:3980632,48.729188799999996,2.4465132,Villeneuve-Saint-Georges,,,,,,,,,,,D,,Villeneuve-Saint-Georges,,,,,,,,,,,,Transilien,,,,,,,,SNCF,,stop_area,,,,,,,87681825,,,station,,,,,yes,,,public_transport,,,8768182,,,
StopArea:Relation:3980635,48.7087061,2.4610666,Montgeron - Crosne,,,,,,,,,,,D,,Montgeron - Crosne,,,,,,,,,,,,Transilien,,,,,,,,SNCF,,stop_area,,,,,,,87682104,,,station,,,,,yes,,,public_transport,,,8768210,,,
StopArea:Relation:3980640,48.706846399999996,2.4831818,Yerres,,,,,,,,,,,D,,Yerres,,,,,,,,,,,,Transilien,,,,,,,,SNCF,,stop_area,,,,,,,87682112,,,station,,,,,yes,,,public_transport,,,8768211,,,
StopArea:Relation:3980654,48.6994378,2.5064664999999997,Brunoy,,,,,,,,,,,D,,Brunoy,,,,,,,,,,,,Transilien,,,,,,,,SNCF,,stop_area,,,,,,,87682120,,,station,,,,,yes,,,public_transport,,,8768212,,,
StopArea:Relation:3980668,48.5151477,2.5991443,Vosves,,,,,,,,,,,D,,Vosves,,,,,,,,,,,,Transilien,,,,,,,,SNCF,,stop_area,,,,,,,87682500,,,station,,,,,yes,,,public_transport,,,8768250,,,
StopArea:Relation:3980761,48.596447399999995,2.5834286,Savigny-le-Temple - Nandy,,,,,,,,,,,D,,Savigny-le-Temple - Nandy,,,,,,,,,,,,Transilien,,,,,,,,SNCF,,stop_area,,,,,,,87682187,,,station,,,,,yes,,,public_transport,,,8768218,,,
StopArea:Relation:3980768,48.5400455,2.6240921,Le Mée-sur-Seine,,,,,,,,,,,D,,Le Mée-sur-Seine,,,,,,,,,,,,Transilien,,,,,,,,SNCF,,stop_area,,,,,,,87682179,,,station,,,,,yes,,,public_transport,,,8768217,,,
StopArea:Relation:3980801,48.560727199999995,2.5971032,Cesson,,,,,,,,,,,D,,Cesson,,,,,,,,,,,,Transilien,,,,,,,,SNCF,,stop_area,,,,,,,87682161,,,station,,,,,yes,,,public_transport,,,8768216,,,
StopArea:Relation:3980803,48.628416099999995,2.569946,Lieusaint-Moissy,,,,,,,,,,,D,,Lieusaint-Moissy,,,,,,,,,,,,Transilien,,,,,,,,SNCF,,stop_area,,,,,,,87682153,,,station,,,,,yes,,,public_transport,,,8768215,,,
StopArea:Relation:3980831,48.6669452,2.5474829999999997,Combs-la-Ville - Quincy,,,,,,,,,,,D,,Combs-la-Ville - Quincy,,,,,,,,,,,,Transilien,,,,,,,,SNCF,,stop_area,,,,,,,87682146,,Combs-la-Ville,station,,,,,yes,,,public_transport,,,8768214,,,
StopArea:Relation:3980833,48.680844199999996,2.5323327,Boussy-Saint-Antoine,,,,,,,,,,,D,,Boussy-Saint-Antoine,,,,,,,,,,,,Transilien,,,,,,,,SNCF,,stop_area,,,,,,,87682138,,,station,,,,,yes,,,public_transport,,,8768213,,,
StopArea:Relation:3981108,48.333152999999996,2.6936458,Bourron Marlotte Grez,,,,,,,,,,,R,,Bourron Marlotte Grez,,,,,,,,,,,,Transilien,,,,,,,,SNCF,,stop_area,,,,,,,87684118,,,station,,,,,yes,,,public_transport,,,8768411,,,
StopArea:Relation:3981110,48.336519599999995,2.7378969,Montigny-sur-Loing,,,,,,,,,,,R,,Montigny-sur-Loing,,,,,,,,,,,,Transilien,,,,,,,,SNCF,,stop_area,,,,,,,87684100,,,station,,,,,yes,,,public_transport,,,8768410,,,
StopArea:Relation:3981111,48.3787751,2.8971614,La Grande-Paroisse,,,,,,,,,,,R,,La Grande-Paroisse,,,,,,,,,,,,Transilien,,,,,,,,SNCF,,stop_area,,,,,,,87682476,,,station,,,,,yes,,,public_transport,,,8768247,,,
StopArea:Relation:3990120,48.4873901,2.7519308,Fontaine-le-Port,,,,,,,,,,,R,,Fontaine-le-Port,,,,,,,,,,,,Transilien,,,,,,,,SNCF,,stop_area,,,,,,,87682427,,,station,,,,,yes,,,public_transport,,,8768242,,,
StopArea:Relation:3990128,48.430546,2.753011,Vulaines-sur-Seine - Samoreau,,,,,,,,,,,R,,Vulaines-sur-Seine - Samoreau,,,,,,,,,,,,Transilien,,,,,,,,SNCF,,stop_area,,,,,,,87682443,,,station,,,,,yes,,,public_transport,,,8768244,,,
StopArea:Relation:3990129,48.406504899999995,2.7994269,Champagne-sur-Seine,,,,,,,,,,,R,,Champagne-sur-Seine,,,,,,,,,,,,Transilien,,,,,,,,SNCF,,stop_area,,,,,,,87682450,,,station,,,,,yes,,,public_transport,,,8768245,,,
StopArea:Relation:3990130,48.387636699999995,2.8404431999999997,Vernou-la-Celle-sur-Seine,,,,,Vernou sur Seine,,,,,,R,,Vernou-la-Celle-sur-Seine,,,,,,,,,,,,Transilien,,,,,,,,SNCF,,stop_area,,,,,,,87682468,,,station,,,,,yes,,,public_transport,,,8768246,,,
StopArea:Relation:3990161,48.379889999999996,2.9426505,Montereau,,,,,,,,,,,R,,Montereau,,,,,,,,,,,,Transilien,,,,,,,,SNCF,,stop_area,,,,,,,87682302,,,station,,,,,yes,,,public_transport,,,8768230,,,
StopArea:Relation:3990181,48.382211399999996,2.8160575999999997,Saint-Mammès,,,,,,,,,,,K,,Saint-Mammès,,,,,,,,,,,,Transilien,,,,,,,,SNCF,,stop_area,,,,,,,87682294,,,station,,,,,yes,,,public_transport,,,8768229,,,
StopArea:Relation:3995113,48.956864499999995,2.8743496,Meaux,,,,,,,,,,,P,,Meaux,,,,,,,,,,,,Transilien,,,,,,,,SNCF,,stop_area,,,,,,,87116103,,,station,,,,,yes,,,public_transport,,,8711610,,,
StopArea:Relation:3995130,48.8739175,2.5843952,Chelles Gournay,,,,,,,,,,,E;P,,Chelles Gournay,,,,,,,,,,,,Transilien,,,,,,,,SNCF,,stop_area,,,,,,,87116111,,,station,,,,,yes,,,public_transport,,,8711611,,,
StopArea:Relation:3995137,48.513459,3.2497789999999998,Longueville,,,,,,,,,,,P,,Longueville,,,,,,,,,,,,Transilien,,,,,,,,SNCF,,stop_area,,,,,,,87116137,,,station,,,,,yes,,,public_transport,,,8711613,,,
StopArea:Relation:3995146,48.555579699999996,3.3029097999999997,Provins,,,,,,,,,,,P,,Provins,,,,,,,,,,,,Transilien,,,,,,,,SNCF,,stop_area,,,,,,,87116160,,,station,,,,,yes,,,public_transport,,,8711616,,,
StopArea:Relation:3995161,48.739356,2.7598059999999998,Tournan,,,,,,,,,,,E,,Tournan,,,,,,,,,,,,Transilien,,,,,,,,SNCF,,stop_area,,,,,,,87116210,,,station,,,,,yes,,,public_transport,,,8711621,,,
StopArea:Relation:3995209,48.8108326,2.9546395999999997,Guérard - La Celle-sur-Morin,,,,,,,,,,,P,,Guérard - La Celle-sur-Morin,,,,,,,,,,,,Transilien,,,,,,,,SNCF,,stop_area,,,,,,,87116269,,,station,,,,,yes,,,public_transport,,,8711626,,,
StopArea:Relation:3995237,48.8139663,3.0423269,Mouroux,,,,,,,,,,,P,,Mouroux,,,,,,,,,,,,Transilien,,,,,,,,SNCF,,stop_area,,,,,,,87116285,,,station,,,,,yes,,,public_transport,,,8711628,,,
StopArea:Relation:3995240,48.8753549,2.639469,Vaires - Torcy,,,,,,,,,,,P,,Vaires - Torcy,,,,,,,,,,,,Transilien,,,,,,,,SNCF,,stop_area,,,,,,,87116293,,,station,,,,,yes,,,public_transport,,,8711629,,,
StopArea:Relation:3995335,48.882537899999996,2.7092054,Lagny Thorigny,,,,,,,,,,,P,,Lagny Thorigny,,,,,,,,,,,,Transilien,,,,,,,,SNCF,,stop_area,,,,,,,87116319,,,station,,,,,yes,,,public_transport,,,8711631,,,
StopArea:Relation:3995360,48.9047951,2.8172013,Esbly,,,,,,,,,,,P,,Esbly,,,,,,,,,,,,Transilien,,,,,,,,SNCF,,stop_area,,,,,,,87116327,,,station,,,,,yes,,,public_transport,,,8711632,,,
StopArea:Relation:3995363,48.890982199999996,2.8260319999999997,Montry - Condé-Sainte-Libiaire,,,,,,,,,,,P,,Montry - Condé-Sainte-Libiaire,,,,,,,,,,,,Transilien,,,,,,,,SNCF,,stop_area,,,,,,,87116400,,,station,,,,,yes,,,public_transport,,,8711640,,,
StopArea:Relation:3995443,48.959229,3.0256165999999998,Changis Saint-Jean,,,,,,,,,,,P,,Changis Saint-Jean,,,,,,,,,,,,Transilien,,,,,,,,SNCF,,stop_area,,,,,,,87116509,,,station,,,,,yes,,,public_transport,,,8711650,,,
StopArea:Relation:3995450,48.9740469,3.2180758,Nanteuil - Saâcy,,,,,,,,,,,P,,Nanteuil - Saâcy,,,,,,,,,,,,Transilien,,,,,,,,SNCF,,stop_area,,,,,,,87116558,,,station,,,,,yes,,,public_transport,,,8711655,,,
StopArea:Relation:3995483,48.997952,3.0070501999999997,Isles - Armentières - Congis,,,,,,87116616,,,,,P,,Isles - Armentières - Congis,,,,,,,,,,,,Transilien,,,,,,,,SNCF,,stop_area,,,,,,,87116616,,,station,,,,,yes,,,public_transport,,,8711661,,,
StopArea:Relation:3995499,49.0219191,3.0319437,Lizy-sur-Ourcq,,,,,,,,,,,P,,Lizy-sur-Ourcq,,,,,,,,,,,,Transilien,,,,,,,,SNCF,,stop_area,,,,,,,87116632,,,station,,,,,yes,,,public_transport,,,8711663,,,
StopArea:Relation:3995513,48.8594201,2.9071892,Crécy La Chapelle,,,,,,,,,,,P,,Crécy La Chapelle,,,,,,,,,,,,Transilien,,,,,,,,SNCF,,stop_area,,,,,,,87116772,,,station,,,,,yes,,,public_transport,,,8711677,,,
StopArea:Relation:3995525,48.9581823,2.3290862,Epinay-Villetaneuse,,,,,Épinay-sur-Seine - Villetaneuse,,,,,,H,,Epinay-Villetaneuse,,,,,,,,,,,,Transilien,,,,,,,,SNCF,,stop_area,,,,,,,87271122,,,station,,,,,yes,,,public_transport,,,8727112,,,
StopArea:Relation:3995532,48.966335099999995,2.3164173999999997,La Barre Ormesson,,,,,,,,,,,H,,La Barre Ormesson,,,,,,,,,,,,Transilien,,,,,,,,SNCF,,stop_area,,,,,,,87271171,,,station,,,,,yes,,,public_transport,,,8727117,,,
StopArea:Relation:3995710,48.9241481,2.3852023,La Courneuve - Aubervilliers,,,,,,,,,,,B,,La Courneuve - Aubervilliers,,,,,,,,,,,,Transilien,,,,,,,,SNCF,,stop_area,,,,,,,87271304,,,station,,,,,yes,,,public_transport,,,8727130,,,
StopArea:Relation:3995718,48.9306108,2.4257003999999998,Le Bourget,,,,,,,,,,,B,,Le Bourget,,,,,,,,,,,,Transilien,,,,,,,,SNCF,,stop_area,,,,,,,87271395,,,station,,,,,yes,,,public_transport,,,8727139,,,
StopArea:Relation:3995746,48.932857399999996,2.4553892,Drancy,,,,,,,,,,,B,,Drancy,,,,,,,,,,,,Transilien,,,,,,,,SNCF,,stop_area,,,,,,,87271403,,,station,,,,,yes,,,public_transport,,,8727140,,,
